{
  "type": "FeatureCollection",
  "features": [
    {"type":"Feature","properties":{"network":"Charter","grade_cat":"ES","zip":"60632","governance":"Charter","school_id":"400009","ald_15":"Edward M. Burke","long":"-87.740097","grades":"K, 1, 2, 3, 4, 5, 6, 7, 8","commarea":"GARFIELD RIDGE","short_name":"GLOBAL CITIZENSHIP","ward_15":"14","address":"4647 W 47th St","geo_network":"8","lat":"41.807579","phone":"1(773)582-1100"},"geometry":{"type":"Point","coordinates":[-87.7400974361456,41.80757850716726]}},{"type":"Feature","properties":{"network":"Charter","grade_cat":"HS","zip":"60609","governance":"Charter","school_id":"400010","ald_15":"Patricia R. Dowell","long":"-87.625849","grades":"9, 10, 11, 12","commarea":"WASHINGTON PARK","short_name":"ACE TECH HS","ward_15":"3","address":"5410 S State St","geo_network":"9","lat":"41.796122","phone":"1(773)548-8705"},"geometry":{"type":"Point","coordinates":[-87.6258490370775,41.79612150915272]}},{"type":"Feature","properties":{"network":"Charter","grade_cat":"ES","zip":"60612","governance":"Charter","school_id":"400011","ald_15":"Jason C. Ervin","long":"-87.705235","grades":"K, 1, 2, 3, 4, 5, 6, 7, 8","commarea":"EAST GARFIELD PARK","short_name":"LOCKE A","ward_15":"28","address":"3141 W Jackson Blvd","geo_network":"5","lat":"41.877248","phone":"1(773)265-7232"},"geometry":{"type":"Point","coordinates":[-87.70523452626735,41.87724835217878]}},{"type":"Feature","properties":{"network":"Charter","grade_cat":"HS","zip":"60621","governance":"Charter","school_id":"400012","ald_15":"Roderick T. Sawyer","long":"-87.635472","grades":"5, 6, 7, 8, 9, 10, 11, 12","commarea":"ENGLEWOOD","short_name":"AMANDLA HS","ward_15":"6","address":"6800 S Stewart Ave","geo_network":"11","lat":"41.770802","phone":"1(773)535-7150"},"geometry":{"type":"Point","coordinates":[-87.63547156927478,41.77080225409796]}},{"type":"Feature","properties":{"network":"Charter","grade_cat":"HS","zip":"60618","governance":"Charter","school_id":"400013","ald_15":"Ariel E. Reboyras","long":"-87.727096","grades":"9, 10, 11, 12","commarea":"AVONDALE","short_name":"ASPIRA - EARLY COLLEGE HS","ward_15":"30","address":"3986 W Barry Ave","geo_network":"4","lat":"41.937298","phone":"1(773)252-0970 x137"},"geometry":{"type":"Point","coordinates":[-87.72709565821633,41.93729828458827]}},{"type":"Feature","properties":{"network":"Charter","grade_cat":"ES","zip":"60625","governance":"Charter","school_id":"400017","ald_15":"Rey Colon","long":"-87.721825","grades":"6, 7, 8","commarea":"ALBANY PARK","short_name":"ASPIRA - HAUGAN","ward_15":"35","address":"3729 W Leland Ave","geo_network":"1","lat":"41.966406","phone":"1(773)252-0970"},"geometry":{"type":"Point","coordinates":[-87.72182466558868,41.96640566728407]}},{"type":"Feature","properties":{"network":"Network 3","grade_cat":"HS","zip":"60644","governance":"District","school_id":"400018","ald_15":"Jason C. Ervin","long":"-87.761891","grades":"9, 10, 11, 12","commarea":"AUSTIN","short_name":"AUSTIN BUS & ENTRP HS","ward_15":"28","address":"231 N Pine Ave","geo_network":"3","lat":"41.884205","phone":"1(773)534-6316"},"geometry":{"type":"Point","coordinates":[-87.76189101689764,41.88420467132072]}},{"type":"Feature","properties":{"network":"Charter","grade_cat":"ES","zip":"60609","governance":"Charter","school_id":"400019","ald_15":"Patricia R. Dowell","long":"-87.626622","grades":"K, 1, 2, 3, 4, 5, 6, 7, 8","commarea":"GRAND BOULEVARD","short_name":"BRONZEVILLE LIGHTHOUSE","ward_15":"3","address":"8 W Root St","geo_network":"9","lat":"41.819277","phone":"1(773)535-1460"},"geometry":{"type":"Point","coordinates":[-87.6266218014815,41.819276610409645]}},{"type":"Feature","properties":{"network":"Charter","grade_cat":"ES","zip":"60644","governance":"Charter","school_id":"400021","ald_15":"Deborah L. Graham","long":"-87.765322","grades":"K, 1, 2, 3, 4, 5, 6, 7, 8","commarea":"AUSTIN","short_name":"CATALYST - CIRCLE ROCK","ward_15":"29","address":"5608 W Washington Blvd","geo_network":"3","lat":"41.882322","phone":"1(773)945-5025"},"geometry":{"type":"Point","coordinates":[-87.76532197834973,41.882322220692345]}},{"type":"Feature","properties":{"network":"Contract","grade_cat":"HS","zip":"60622","governance":"Contract","school_id":"400022","ald_15":"Roberto Maldonado","long":"-87.694945","grades":"9, 10, 11, 12","commarea":"WEST TOWN","short_name":"CHICAGO ARTS HS","ward_15":"26","address":"2714 W Augusta Blvd","geo_network":"5","lat":"41.899377","phone":"1(773)534-9710"},"geometry":{"type":"Point","coordinates":[-87.6949450113285,41.89937657282699]}},{"type":"Feature","properties":{"network":"Charter","grade_cat":"ES","zip":"60619","governance":"Charter","school_id":"400023","ald_15":"Michelle A. Harris","long":"-87.587928","grades":"K, 1, 2, 3, 4, 5, 6, 7, 8","commarea":"AVALON PARK","short_name":"CICS - AVALON/SOUTH SHORE","ward_15":"8","address":"1501 E 83rd Pl","geo_network":"12","lat":"41.743179","phone":"1(773)721-0858"},"geometry":{"type":"Point","coordinates":[-87.5879276410776,41.743179420034345]}},{"type":"Feature","properties":{"network":"Charter","grade_cat":"ES","zip":"60609","governance":"Charter","school_id":"400024","ald_15":"JoAnn Thompson","long":"-87.670243","grades":"K, 1, 2, 3, 4, 5, 6, 7, 8","commarea":"NEW CITY","short_name":"CICS - BASIL","ward_15":"16","address":"1816 W Garfield Blvd","geo_network":"11","lat":"41.794043","phone":"1(773)778-9455"},"geometry":{"type":"Point","coordinates":[-87.6702426574399,41.79404286329775]}},{"type":"Feature","properties":{"network":"Charter","grade_cat":"ES","zip":"60647","governance":"Charter","school_id":"400025","ald_15":"Scott Waguespack","long":"-87.681358","grades":"K, 1, 2, 3, 4, 5, 6, 7, 8","commarea":"LOGAN SQUARE","short_name":"CICS - BUCKTOWN","ward_15":"32","address":"2235 N Hamilton Ave","geo_network":"6","lat":"41.922415","phone":"1(773)645-3321"},"geometry":{"type":"Point","coordinates":[-87.68135796458323,41.92241462943599]}},{"type":"Feature","properties":{"network":"Charter","grade_cat":"ES","zip":"60643","governance":"Charter","school_id":"400026","ald_15":"Howard B. Brookins, Jr.","long":"-87.657561","grades":"K, 1, 2","commarea":"WASHINGTON HEIGHTS","short_name":"CICS - LOOMIS","ward_15":"21","address":"9535 S Loomis St","geo_network":"11","lat":"41.720246","phone":"1(773)429-8955"},"geometry":{"type":"Point","coordinates":[-87.6575610581317,41.720246422855304]}},{"type":"Feature","properties":{"network":"Charter","grade_cat":"ES","zip":"60618","governance":"Charter","school_id":"400027","ald_15":"Deborah Mell","long":"-87.710492","grades":"K, 1, 2, 3, 4, 5, 6, 7, 8","commarea":"IRVING PARK","short_name":"CICS - IRVING PARK","ward_15":"33","address":"3820 N Spaulding Ave","geo_network":"1","lat":"41.950891","phone":"1(773)433-5000"},"geometry":{"type":"Point","coordinates":[-87.71049242869645,41.95089127442423]}},{"type":"Feature","properties":{"network":"Charter","grade_cat":"ES","zip":"60628","governance":"Charter","school_id":"400028","ald_15":"Anthony A. Beale","long":"-87.616888","grades":"K, 1, 2, 3, 4, 5, 6, 7, 8","commarea":"WEST PULLMAN","short_name":"CICS - PRAIRIE","ward_15":"9","address":"11530 S Prairie Ave","geo_network":"13","lat":"41.684433","phone":"1(773)928-0480"},"geometry":{"type":"Point","coordinates":[-87.6168883820636,41.68443303827316]}},{"type":"Feature","properties":{"network":"Charter","grade_cat":"ES","zip":"60637","governance":"Charter","school_id":"400029","ald_15":"Willie B. Cochran","long":"-87.622068","grades":"K, 1, 2, 3, 4, 5, 6, 7, 8","commarea":"WASHINGTON PARK","short_name":"CICS - WASHINGTON PARK","ward_15":"20","address":"6105 S Michigan Ave","geo_network":"9","lat":"41.783617","phone":"1(773)324-3300"},"geometry":{"type":"Point","coordinates":[-87.62206845449438,41.78361684616195]}},{"type":"Feature","properties":{"network":"Charter","grade_cat":"ES","zip":"60639","governance":"Charter","school_id":"400030","ald_15":"Nicholas Sposato","long":"-87.776749","grades":"K, 1, 2, 3, 4, 5, 6, 7, 8","commarea":"BELMONT CRAGIN","short_name":"CICS - WEST BELDEN","ward_15":"36","address":"2245 N McVicker Ave","geo_network":"3","lat":"41.921687","phone":"1(773)637-9430"},"geometry":{"type":"Point","coordinates":[-87.77674853907737,41.921687494805006]}},{"type":"Feature","properties":{"network":"Charter","grade_cat":"ES","zip":"60652","governance":"Charter","school_id":"400031","ald_15":"Lona Lane","long":"-87.692614","grades":"K, 1, 2, 3, 4, 5, 6, 7, 8","commarea":"ASHBURN","short_name":"CICS - WRIGHTWOOD","ward_15":"18","address":"8130 S California Ave","geo_network":"10","lat":"41.745365","phone":"1(773)434-4575"},"geometry":{"type":"Point","coordinates":[-87.69261439899655,41.74536545022764]}},{"type":"Feature","properties":{"network":"Charter","grade_cat":"HS","zip":"60620","governance":"Charter","school_id":"400032","ald_15":"Latasha R. Thomas","long":"-87.66898","grades":"9, 10, 11, 12","commarea":"AUBURN GRESHAM","short_name":"CICS - ELLISON HS","ward_15":"17","address":"1817 W 80th St","geo_network":"11","lat":"41.748382","phone":"1(773)478-4434"},"geometry":{"type":"Point","coordinates":[-87.66897963928055,41.7483824079856]}},{"type":"Feature","properties":{"network":"Charter","grade_cat":"HS","zip":"60643","governance":"Charter","school_id":"400033","ald_15":"Howard B. Brookins, Jr.","long":"-87.655768","grades":"3, 4, 5, 6, 7, 8, 9, 10, 11, 12","commarea":"WASHINGTON HEIGHTS","short_name":"CICS - LONGWOOD","ward_15":"21","address":"1309 W 95th St","geo_network":"11","lat":"41.721221","phone":"1(773)238-5330"},"geometry":{"type":"Point","coordinates":[-87.65576813290534,41.72122143249401]}},{"type":"Feature","properties":{"network":"Charter","grade_cat":"HS","zip":"60659","governance":"Charter","school_id":"400034","ald_15":"Margaret Laurino","long":"-87.726504","grades":"9, 10, 11, 12","commarea":"NORTH PARK","short_name":"CICS - NORTHTOWN HS","ward_15":"39","address":"3900 W Peterson Ave","geo_network":"1","lat":"41.990245","phone":"1(773)478-3655"},"geometry":{"type":"Point","coordinates":[-87.7265042643701,41.99024501112797]}},{"type":"Feature","properties":{"network":"Charter","grade_cat":"HS","zip":"60626","governance":"Charter","school_id":"400035","ald_15":"Joe A. Moore","long":"-87.674818","grades":"6, 7, 8, 9, 10, 11, 12","commarea":"ROGERS PARK","short_name":"CHICAGO MATH & SCIENCE HS","ward_15":"49","address":"7212 N Clark St","geo_network":"2","lat":"42.013031","phone":"1(773)761-8960"},"geometry":{"type":"Point","coordinates":[-87.674818417881,42.01303148922014]}},{"type":"Feature","properties":{"network":"Charter","grade_cat":"HS","zip":"60607","governance":"Charter","school_id":"400036","ald_15":"Daniel S. Solis","long":"-87.649772","grades":"K, 1, 2, 3, 4, 5, 6, 7, 8, 9, 10, 11, 12","commarea":"NEAR WEST SIDE","short_name":"CHICAGO VIRTUAL","ward_15":"25","address":"38 S Peoria St","geo_network":"6","lat":"41.88055","phone":"1(312)267-4486"},"geometry":{"type":"Point","coordinates":[-87.64977248488717,41.88055011166055]}},{"type":"Feature","properties":{"network":"Options","grade_cat":"HS","zip":"60623","governance":"Contract","school_id":"400038","ald_15":"Michael D. Chandler","long":"-87.725022","grades":"11, 12","commarea":"NORTH LAWNDALE","short_name":"COMMUNITY SERVICES WEST HS","ward_15":"24","address":"1239 S Pulaski Rd","geo_network":"5","lat":"41.864952","phone":"1(773)522-5133"},"geometry":{"type":"Point","coordinates":[-87.72502202021961,41.86495225895573]}},{"type":"Feature","properties":{"network":"Charter","grade_cat":"ES","zip":"60622","governance":"Charter","school_id":"400039","ald_15":"Proco (Joe) Moreno III","long":"-87.694364","grades":"K, 1, 2, 3, 4, 5, 6, 7, 8","commarea":"WEST TOWN","short_name":"ERIE","ward_15":"1","address":"1405 N Washtenaw Ave","geo_network":"5","lat":"41.906771","phone":"1(773)486-7161"},"geometry":{"type":"Point","coordinates":[-87.69436444554765,41.90677063462042]}},{"type":"Feature","properties":{"network":"Charter","grade_cat":"ES","zip":"60624","governance":"Charter","school_id":"400040","ald_15":"Michael D. Chandler","long":"-87.717642","grades":"K, 1, 2, 3, 4, 5, 6, 7, 8","commarea":"NORTH LAWNDALE","short_name":"FRAZIER CHARTER","ward_15":"24","address":"3711 W Douglas Blvd","geo_network":"5","lat":"41.862077","phone":"1(773)534-6776"},"geometry":{"type":"Point","coordinates":[-87.71764197612555,41.86207686339486]}},{"type":"Feature","properties":{"network":"Charter","grade_cat":"ES","zip":"60651","governance":"Charter","school_id":"400041","ald_15":"Walter Burnett, Jr.","long":"-87.721959","grades":"K, 1, 2, 3, 4, 5, 6, 7, 8","commarea":"HUMBOLDT PARK","short_name":"GALAPAGOS","ward_15":"27","address":"3814 W Iowa St","geo_network":"5","lat":"41.897313","phone":"1(773)384-9400"},"geometry":{"type":"Point","coordinates":[-87.72195903871022,41.89731302422711]}},{"type":"Feature","properties":{"network":"Contract","grade_cat":"ES","zip":"60612","governance":"Contract","school_id":"400043","ald_15":"Walter Burnett, Jr.","long":"-87.668077","grades":"K, 1, 2, 3, 4, 5","commarea":"NEAR WEST SIDE","short_name":"HOPE INSTITUTE","ward_15":"27","address":"1628 W Washington","geo_network":"6","lat":"41.883362","phone":"1(773)534-7405"},"geometry":{"type":"Point","coordinates":[-87.66807694586895,41.883362026352174]}},{"type":"Feature","properties":{"network":"Charter","grade_cat":"ES","zip":"60623","governance":"Charter","school_id":"400044","ald_15":"Michael D. Chandler","long":"-87.721071","grades":"6, 7, 8","commarea":"NORTH LAWNDALE","short_name":"KIPP - ASCEND","ward_15":"24","address":"1616 S Avers Ave","geo_network":"5","lat":"41.85837","phone":"1(773)521-4766"},"geometry":{"type":"Point","coordinates":[-87.72107064667848,41.85836974325148]}},{"type":"Feature","properties":{"network":"Charter","grade_cat":"ES","zip":"60628","governance":"Charter","school_id":"400045","ald_15":"Carrie M. Austin","long":"-87.631058","grades":"K, 1, 2, 3, 4, 5, 6, 7, 8","commarea":"ROSELAND","short_name":"NKRUMAH","ward_15":"34","address":"314 W 108th St","geo_network":"13","lat":"41.69804","phone":"1(773)568-8000"},"geometry":{"type":"Point","coordinates":[-87.6310581484369,41.69804048768888]}},{"type":"Feature","properties":{"network":"Charter","grade_cat":"ES","zip":"60624","governance":"Charter","school_id":"400046","ald_15":"Michael D. Chandler","long":"-87.710679","grades":"K, 1, 2, 3, 4, 5, 6, 7, 8","commarea":"NORTH LAWNDALE","short_name":"LEARN - BUTLER","ward_15":"24","address":"1132 S Homan Ave","geo_network":"5","lat":"41.867273","phone":"1(773)826-6330"},"geometry":{"type":"Point","coordinates":[-87.71067948018276,41.867272713446]}},{"type":"Feature","properties":{"network":"Charter","grade_cat":"ES","zip":"60612","governance":"Charter","school_id":"400047","ald_15":"Walter Burnett, Jr.","long":"-87.698739","grades":"K, 1, 2, 3, 4, 5","commarea":"EAST GARFIELD PARK","short_name":"LEARN - CAMPBELL","ward_15":"27","address":"212 S Francisco Ave","geo_network":"5","lat":"41.877861","phone":"1(773)826-0370"},"geometry":{"type":"Point","coordinates":[-87.69873872021792,41.8778606308216]}},{"type":"Feature","properties":{"network":"Charter","grade_cat":"ES","zip":"60612","governance":"Charter","school_id":"400048","ald_15":"Jason C. Ervin","long":"-87.686568","grades":"K, 1, 2, 3, 4, 5","commarea":"NEAR WEST SIDE","short_name":"LEARN - EXCEL","ward_15":"28","address":"2401 W Congress Pkwy","geo_network":"6","lat":"41.874687","phone":"1(312)243-7001"},"geometry":{"type":"Point","coordinates":[-87.68656837092625,41.874687140382775]}},{"type":"Feature","properties":{"network":"Charter","grade_cat":"ES","zip":"60623","governance":"Charter","school_id":"400049","ald_15":"Michael D. Chandler","long":"-87.730348","grades":"K, 1, 2, 3, 4, 5, 6, 7, 8","commarea":"NORTH LAWNDALE","short_name":"LEGACY","ward_15":"24","address":"4217 W 18th St","geo_network":"5","lat":"41.856859","phone":"1(773)542-1640"},"geometry":{"type":"Point","coordinates":[-87.73034814818169,41.85685915778028]}},{"type":"Feature","properties":{"network":"Charter","grade_cat":"ES","zip":"60609","governance":"Charter","school_id":"400050","ald_15":"George A. Cardenas","long":"-87.667724","grades":"K, 1, 2, 3, 4, 5, 6, 7, 8","commarea":"MCKINLEY PARK","short_name":"NAMASTE","ward_15":"12","address":"3737 S Paulina St","geo_network":"8","lat":"41.8257","phone":"1(773)715-9558"},"geometry":{"type":"Point","coordinates":[-87.66772404315803,41.82569975919439]}},{"type":"Feature","properties":{"network":"Charter","grade_cat":"HS","zip":"60642","governance":"Charter","school_id":"400051","ald_15":"Bob Fioretti","long":"-87.662628","grades":"9, 10, 11, 12","commarea":"WEST TOWN","short_name":"NOBLE - NOBLE HS","ward_15":"2","address":"1010 N Noble St","geo_network":"6","lat":"41.900191","phone":"1(773)862-1449"},"geometry":{"type":"Point","coordinates":[-87.66262778167372,41.90019052021951]}},{"type":"Feature","properties":{"network":"Charter","grade_cat":"HS","zip":"60619","governance":"Charter","school_id":"400052","ald_15":"Leslie A. Hairston","long":"-87.601974","grades":"6, 7, 8, 9, 10, 11, 12","commarea":"GREATER GRAND CROSSING","short_name":"NOBLE - COMER HS","ward_15":"5","address":"7200 S Ingleside Ave","geo_network":"12","lat":"41.764083","phone":"1(773)729-3969"},"geometry":{"type":"Point","coordinates":[-87.60197357257634,41.76408299254324]}},{"type":"Feature","properties":{"network":"Charter","grade_cat":"HS","zip":"60642","governance":"Charter","school_id":"400053","ald_15":"Walter Burnett, Jr.","long":"-87.664483","grades":"9, 10, 11, 12","commarea":"WEST TOWN","short_name":"NOBLE - GOLDER HS","ward_15":"27","address":"1454 W Superior St","geo_network":"6","lat":"41.895282","phone":"1(312)265-9925"},"geometry":{"type":"Point","coordinates":[-87.6644829982708,41.89528219351542]}},{"type":"Feature","properties":{"network":"Charter","grade_cat":"HS","zip":"60639","governance":"Charter","school_id":"400054","ald_15":"Rey Colon","long":"-87.730127","grades":"9, 10, 11, 12","commarea":"HERMOSA","short_name":"NOBLE - PRITZKER HS","ward_15":"35","address":"4131 W Cortland Ave","geo_network":"4","lat":"41.915214","phone":"1(773)394-2848"},"geometry":{"type":"Point","coordinates":[-87.73012671512001,41.915214106291515]}},{"type":"Feature","properties":{"network":"Charter","grade_cat":"HS","zip":"60642","governance":"Charter","school_id":"400055","ald_15":"Proco (Joe) Moreno III","long":"-87.660859","grades":"9, 10, 11, 12","commarea":"WEST TOWN","short_name":"NOBLE - RAUNER HS","ward_15":"1","address":"1337 W Ohio St","geo_network":"6","lat":"41.892425","phone":"1(312)226-5345"},"geometry":{"type":"Point","coordinates":[-87.66085887019145,41.89242501192071]}},{"type":"Feature","properties":{"network":"Charter","grade_cat":"HS","zip":"60651","governance":"Charter","school_id":"400056","ald_15":"Walter Burnett, Jr.","long":"-87.718047","grades":"9, 10, 11, 12","commarea":"HUMBOLDT PARK","short_name":"NOBLE - ROWE CLARK HS","ward_15":"27","address":"3645 W Chicago Ave","geo_network":"5","lat":"41.895362","phone":"1(773)242-2212"},"geometry":{"type":"Point","coordinates":[-87.7180467674582,41.895362257861905]}},{"type":"Feature","properties":{"network":"Charter","grade_cat":"HS","zip":"60608","governance":"Charter","school_id":"400057","ald_15":"Jason C. Ervin","long":"-87.676111","grades":"9, 10, 11, 12","commarea":"NEAR WEST SIDE","short_name":"NOBLE - UIC HS","ward_15":"28","address":"1231 S Damen Ave","geo_network":"6","lat":"41.865817","phone":"1(312)768-4858"},"geometry":{"type":"Point","coordinates":[-87.67611092929258,41.86581741295497]}},{"type":"Feature","properties":{"network":"Charter","grade_cat":"HS","zip":"60623","governance":"Charter","school_id":"400058","ald_15":"Michael D. Chandler","long":"-87.708987","grades":"9, 10, 11, 12","commarea":"NORTH LAWNDALE","short_name":"NORTH LAWNDALE - CHRISTIANA HS","ward_15":"24","address":"1615 S. Christiana Ave.","geo_network":"5","lat":"41.858564","phone":"1(773)542-1490"},"geometry":{"type":"Point","coordinates":[-87.70898711067419,41.85856355371996]}},{"type":"Feature","properties":{"network":"Charter","grade_cat":"HS","zip":"60623","governance":"Charter","school_id":"400059","ald_15":"Michael D. Chandler","long":"-87.700681","grades":"8, 9, 10, 11, 12","commarea":"NORTH LAWNDALE","short_name":"NORTH LAWNDALE - COLLINS HS","ward_15":"24","address":"1313 S Sacramento Dr","geo_network":"5","lat":"41.864146","phone":"1(773)542-6766"},"geometry":{"type":"Point","coordinates":[-87.70068060050889,41.86414584262254]}},{"type":"Feature","properties":{"network":"Charter","grade_cat":"ES","zip":"60660","governance":"Charter","school_id":"400060","ald_15":"Patrick O'Connor","long":"-87.67116","grades":"K, 1, 2, 3, 4, 5, 6, 7, 8","commarea":"EDGEWATER","short_name":"AHS - PASSAGES","ward_15":"40","address":"1643 W Bryn Mawr Ave","geo_network":"2","lat":"41.983371","phone":"1(773)433-3530"},"geometry":{"type":"Point","coordinates":[-87.67116041959915,41.983371435594066]}},{"type":"Feature","properties":{"network":"Charter","grade_cat":"HS","zip":"60620","governance":"Charter","school_id":"400061","ald_15":"Howard B. Brookins, Jr.","long":"-87.652045","grades":"6, 7, 8, 9, 10, 11, 12","commarea":"AUBURN GRESHAM","short_name":"PERSPECTIVES - LEADERSHIP HS","ward_15":"21","address":"8131 S May St","geo_network":"11","lat":"41.745961","phone":"1(773)358-6100"},"geometry":{"type":"Point","coordinates":[-87.65204508804683,41.745960831206645]}},{"type":"Feature","properties":{"network":"Charter","grade_cat":"HS","zip":"60620","governance":"Charter","school_id":"400062","ald_15":"Howard B. Brookins, Jr.","long":"-87.650657","grades":"9, 10, 11, 12","commarea":"AUBURN GRESHAM","short_name":"PERSPECTIVES - TECH HS","ward_15":"21","address":"8131 S May St","geo_network":"11","lat":"41.745949","phone":"1(773)358-6120"},"geometry":{"type":"Point","coordinates":[-87.65065702433984,41.74594901871308]}},{"type":"Feature","properties":{"network":"Charter","grade_cat":"HS","zip":"60616","governance":"Charter","school_id":"400064","ald_15":"Patricia R. Dowell","long":"-87.628531","grades":"6, 7, 8, 9, 10, 11, 12","commarea":"NEAR SOUTH SIDE","short_name":"PERSPECTIVES - JOSLIN HS","ward_15":"3","address":"1930 S Archer Ave","geo_network":"6","lat":"41.855999","phone":"1(312)225-7400"},"geometry":{"type":"Point","coordinates":[-87.62853090127128,41.85599910415865]}},{"type":"Feature","properties":{"network":"Charter","grade_cat":"HS","zip":"60653","governance":"Charter","school_id":"400066","ald_15":"Patricia R. Dowell","long":"-87.624788","grades":"6, 7, 8, 9, 10, 11, 12","commarea":"DOUGLAS","short_name":"PERSPECTIVES - MATH & SCI HS","ward_15":"3","address":"3663 S Wabash Ave","geo_network":"9","lat":"41.827784","phone":"1(773)358-6800"},"geometry":{"type":"Point","coordinates":[-87.62478772028292,41.82778385667928]}},{"type":"Feature","properties":{"network":"Contract","grade_cat":"ES","zip":"60644","governance":"Contract","school_id":"400068","ald_15":"Deborah L. Graham","long":"-87.763337","grades":"K, 1, 2, 3, 4, 5, 6, 7, 8","commarea":"AUSTIN","short_name":"PLATO","ward_15":"29","address":"5545 W Harrison St","geo_network":"3","lat":"41.87276","phone":"1(773)413-3090 x111"},"geometry":{"type":"Point","coordinates":[-87.76333693224704,41.872760427950524]}},{"type":"Feature","properties":{"network":"Charter","grade_cat":"ES","zip":"60624","governance":"Charter","school_id":"400069","ald_15":"Walter Burnett, Jr.","long":"-87.707796","grades":"K, 1, 2, 3, 4, 5, 6, 7, 8","commarea":"HUMBOLDT PARK","short_name":"POLARIS","ward_15":"27","address":"620 N Sawyer Ave","geo_network":"5","lat":"41.89255","phone":"1(773)534-0820"},"geometry":{"type":"Point","coordinates":[-87.70779647434141,41.89255017349458]}},{"type":"Feature","properties":{"network":"Options","grade_cat":"HS","zip":"60622","governance":"Contract","school_id":"400070","ald_15":"Walter Burnett, Jr.","long":"-87.663541","grades":"9, 10, 11, 12","commarea":"WEST TOWN","short_name":"PROLOGUE - EARLY COLLEGE HS","ward_15":"27","address":"1135 N Cleaver St","geo_network":"6","lat":"41.90307","phone":"1(773)935-9925"},"geometry":{"type":"Point","coordinates":[-87.66354080857676,41.90307017915081]}},{"type":"Feature","properties":{"network":"Charter","grade_cat":"ES","zip":"60636","governance":"Charter","school_id":"400071","ald_15":"JoAnn Thompson","long":"-87.663996","grades":"K, 1, 2, 3, 4, 5, 6, 7, 8","commarea":"WEST ENGLEWOOD","short_name":"PROVIDENCE ENGLEWOOD","ward_15":"16","address":"6515 S Ashland Ave","geo_network":"11","lat":"41.775367","phone":"1(773)434-0202"},"geometry":{"type":"Point","coordinates":[-87.6639958298005,41.775367367121]}},{"type":"Feature","properties":{"network":"Charter","grade_cat":"ES","zip":"60619","governance":"Charter","school_id":"400072","ald_15":"Michelle A. Harris","long":"-87.600255","grades":"K, 1, 2, 3, 4, 5, 6, 7, 8","commarea":"GREATER GRAND CROSSING","short_name":"SHABAZZ - SHABAZZ","ward_15":"8","address":"7823 S Ellis Ave","geo_network":"12","lat":"41.752458","phone":"1(773)651-1221"},"geometry":{"type":"Point","coordinates":[-87.60025455370554,41.752458488475774]}},{"type":"Feature","properties":{"network":"Charter","grade_cat":"HS","zip":"60615","governance":"Charter","school_id":"400073","ald_15":"Patricia R. Dowell","long":"-87.625015","grades":"12","commarea":"GRAND BOULEVARD","short_name":"SHABAZZ - DUSABLE HS","ward_15":"3","address":"4934 S Wabash Ave","geo_network":"9","lat":"41.804309","phone":"1(773)535-1170"},"geometry":{"type":"Point","coordinates":[-87.62501515001941,41.80430932611958]}},{"type":"Feature","properties":{"network":"Charter","grade_cat":"ES","zip":"60636","governance":"Charter","school_id":"400074","ald_15":"Latasha R. Thomas","long":"-87.667639","grades":"K, 1, 2, 3, 4, 5, 6, 7, 8","commarea":"WEST ENGLEWOOD","short_name":"SHABAZZ - SIZEMORE","ward_15":"17","address":"6936 S Hermitage Ave","geo_network":"11","lat":"41.76739","phone":"1(773)535-9144"},"geometry":{"type":"Point","coordinates":[-87.66763900783317,41.7673901124393]}},{"type":"Feature","properties":{"network":"Charter","grade_cat":"ES","zip":"60653","governance":"Charter","school_id":"400075","ald_15":"William \"Will\" D. Burns","long":"-87.608501","grades":"K, 1, 2, 3, 4, 5","commarea":"OAKLAND","short_name":"U OF C - DONOGHUE","ward_15":"4","address":"707 E 37th St","geo_network":"9","lat":"41.827726","phone":"1(773)285-5301"},"geometry":{"type":"Point","coordinates":[-87.60850078074054,41.827726080886215]}},{"type":"Feature","properties":{"network":"Charter","grade_cat":"ES","zip":"60653","governance":"Charter","school_id":"400076","ald_15":"William \"Will\" D. Burns","long":"-87.598786","grades":"K, 1, 2, 3, 4, 5","commarea":"KENWOOD","short_name":"U OF C - NKO","ward_15":"4","address":"1119 E 46th St","geo_network":"9","lat":"41.811183","phone":"1(773)536-2399"},"geometry":{"type":"Point","coordinates":[-87.59878626823252,41.81118286617196]}},{"type":"Feature","properties":{"network":"Charter","grade_cat":"HS","zip":"60637","governance":"Charter","school_id":"400077","ald_15":"Willie B. Cochran","long":"-87.598114","grades":"6, 7, 8, 9, 10, 11, 12","commarea":"WOODLAWN","short_name":"U OF C - WOODLAWN HS","ward_15":"20","address":"6420 S University Ave","geo_network":"9","lat":"41.77813","phone":"1(773)752-8101"},"geometry":{"type":"Point","coordinates":[-87.59811391957531,41.77812969765141]}},{"type":"Feature","properties":{"network":"Charter","grade_cat":"ES","zip":"60653","governance":"Charter","school_id":"400078","ald_15":"Patricia R. Dowell","long":"-87.608426","grades":"6, 7, 8","commarea":"GRAND BOULEVARD","short_name":"U OF C - WOODSON","ward_15":"3","address":"4444 S Evans Ave","geo_network":"9","lat":"41.813547","phone":"1(773)624-0700"},"geometry":{"type":"Point","coordinates":[-87.60842562201805,41.81354730382042]}},{"type":"Feature","properties":{"network":"Charter","grade_cat":"ES","zip":"60632","governance":"Charter","school_id":"400079","ald_15":"Edward M. Burke","long":"-87.730495","grades":"K, 1, 2, 3, 4, 5, 6, 7, 8","commarea":"ARCHER HEIGHTS","short_name":"UNO - ZIZUMBO","ward_15":"14","address":"4248 W 47th St","geo_network":"8","lat":"41.810135","phone":"1(773)579-3470 x222"},"geometry":{"type":"Point","coordinates":[-87.73049511709266,41.81013478659646]}},{"type":"Feature","properties":{"network":"Charter","grade_cat":"ES","zip":"60632","governance":"Charter","school_id":"400080","ald_15":"Edward M. Burke","long":"-87.73045","grades":"K, 1, 2, 3, 4, 5, 6, 7, 8","commarea":"ARCHER HEIGHTS","short_name":"UNO - TORRES","ward_15":"14","address":"4248 W 47th St","geo_network":"8","lat":"41.8082","phone":"1(773)579-3475"},"geometry":{"type":"Point","coordinates":[-87.73045044324964,41.80819980590754]}},{"type":"Feature","properties":{"network":"Charter","grade_cat":"ES","zip":"60608","governance":"Charter","school_id":"400081","ald_15":"Daniel S. Solis","long":"-87.667949","grades":"K, 1, 2, 3, 4, 5, 6, 7, 8","commarea":"LOWER WEST SIDE","short_name":"UNO - DE LAS CASAS","ward_15":"25","address":"1641 W 16th St","geo_network":"7","lat":"41.859504","phone":"1(312)432-3224"},"geometry":{"type":"Point","coordinates":[-87.66794916939253,41.85950400763012]}},{"type":"Feature","properties":{"network":"Charter","grade_cat":"ES","zip":"60618","governance":"Charter","school_id":"400082","ald_15":"Deborah Mell","long":"-87.699594","grades":"K, 1, 2, 3, 4, 5, 6, 7, 8","commarea":"AVONDALE","short_name":"UNO - FUENTES","ward_15":"33","address":"2845 W Barry Ave","geo_network":"4","lat":"41.937476","phone":"1(773)279-9826"},"geometry":{"type":"Point","coordinates":[-87.69959365156127,41.937475775349675]}},{"type":"Feature","properties":{"network":"Charter","grade_cat":"ES","zip":"60608","governance":"Charter","school_id":"400083","ald_15":"Michael D. Chandler","long":"-87.692551","grades":"K, 1, 2, 3, 4, 5, 6, 7, 8","commarea":"SOUTH LAWNDALE","short_name":"UNO - PAZ","ward_15":"24","address":"2651 W 23rd St","geo_network":"7","lat":"41.850035","phone":"1(773)890-1054"},"geometry":{"type":"Point","coordinates":[-87.6925508987193,41.85003541244107]}},{"type":"Feature","properties":{"network":"Charter","grade_cat":"ES","zip":"60632","governance":"Charter","school_id":"400084","ald_15":"Edward M. Burke","long":"-87.693862","grades":"K, 1, 2, 3, 4, 5, 6, 7, 8","commarea":"GAGE PARK","short_name":"UNO - TAMAYO","ward_15":"14","address":"5135 S California Ave","geo_network":"8","lat":"41.79993","phone":"1(773)434-6355"},"geometry":{"type":"Point","coordinates":[-87.69386163597656,41.799930186168076]}},{"type":"Feature","properties":{"network":"Charter","grade_cat":"HS","zip":"60632","governance":"Charter","school_id":"400085","ald_15":"Edward M. Burke","long":"-87.730467","grades":"9, 10, 11, 12","commarea":"ARCHER HEIGHTS","short_name":"UNO - GARCIA HS","ward_15":"14","address":"4248 W 47th St","geo_network":"8","lat":"41.809171","phone":"1(773)579-3480 x225"},"geometry":{"type":"Point","coordinates":[-87.73046684906748,41.809170789108045]}},{"type":"Feature","properties":{"network":"Charter","grade_cat":"HS","zip":"60621","governance":"Charter","school_id":"400086","ald_15":"Willie B. Cochran","long":"-87.634357","grades":"9, 10, 11, 12","commarea":"ENGLEWOOD","short_name":"URBAN PREP - ENGLEWOOD HS","ward_15":"20","address":"6201 S Stewart Ave","geo_network":"11","lat":"41.781498","phone":"1(773)535-9724"},"geometry":{"type":"Point","coordinates":[-87.63435669188824,41.78149781596477]}},{"type":"Feature","properties":{"network":"Charter","grade_cat":"HS","zip":"60616","governance":"Charter","school_id":"400087","ald_15":"William \"Will\" D. Burns","long":"-87.618724","grades":"8, 9, 10, 11, 12","commarea":"DOUGLAS","short_name":"YOUNG WOMENS HS","ward_15":"4","address":"2641 S Calumet Ave","geo_network":"9","lat":"41.844544","phone":"1(312)949-9400"},"geometry":{"type":"Point","coordinates":[-87.61872379622207,41.84454380568922]}},{"type":"Feature","properties":{"network":"Charter","grade_cat":"ES","zip":"60632","governance":"Charter","school_id":"400089","ald_15":"Toni L. Foulkes","long":"-87.697394","grades":"K, 1, 2, 3, 4, 5, 6, 7, 8","commarea":"BRIGHTON PARK","short_name":"UNO - MARQUEZ","ward_15":"15","address":"2916 W 47th St","geo_network":"8","lat":"41.808309","phone":"1(773)321-2200"},"geometry":{"type":"Point","coordinates":[-87.69739409676,41.80830882340626]}},{"type":"Feature","properties":{"network":"Contract","grade_cat":"HS","zip":"60608","governance":"Contract","school_id":"400091","ald_15":"Daniel S. Solis","long":"-87.659095","grades":"9, 10, 11, 12","commarea":"NEAR WEST SIDE","short_name":"CHICAGO TECH HS","ward_15":"25","address":"1301 W 14th St","geo_network":"6","lat":"41.863301","phone":"1(773)534-7755"},"geometry":{"type":"Point","coordinates":[-87.65909480337876,41.86330140820912]}},{"type":"Feature","properties":{"network":"Charter","grade_cat":"ES","zip":"60827","governance":"Charter","school_id":"400092","ald_15":"Anthony A. Beale","long":"-87.605039","grades":"K, 1, 2, 3, 4, 5, 6","commarea":"RIVERDALE","short_name":"CICS - BOND","ward_15":"9","address":"13300 S Langley Ave","geo_network":"13","lat":"41.653663","phone":"1(773)468-1300"},"geometry":{"type":"Point","coordinates":[-87.6050391022172,41.653663449591534]}},{"type":"Feature","properties":{"network":"Charter","grade_cat":"HS","zip":"60617","governance":"Charter","school_id":"400094","ald_15":"Natashia Holmes","long":"-87.550222","grades":"9, 10, 11, 12","commarea":"SOUTH CHICAGO","short_name":"EPIC HS","ward_15":"7","address":"8255 S Houston Ave","geo_network":"12","lat":"41.744849","phone":"1(773)535-7930"},"geometry":{"type":"Point","coordinates":[-87.55022236992653,41.74484910534052]}},{"type":"Feature","properties":{"network":"Charter","grade_cat":"ES","zip":"60642","governance":"Charter","school_id":"400096","ald_15":"Bob Fioretti","long":"-87.664072","grades":"K, 1, 2, 3, 4, 5, 6, 7, 8","commarea":"WEST TOWN","short_name":"ROWE","ward_15":"2","address":"1424 N Cleaver St","geo_network":"6","lat":"41.907797","phone":"1(312)445-5870"},"geometry":{"type":"Point","coordinates":[-87.66407246833533,41.90779717820805]}},{"type":"Feature","properties":{"network":"Charter","grade_cat":"HS","zip":"60612","governance":"Charter","school_id":"400097","ald_15":"Walter Burnett, Jr.","long":"-87.678195","grades":"9, 10, 11, 12","commarea":"NEAR WEST SIDE","short_name":"NOBLE - BULLS HS","ward_15":"27","address":"2040 W Adams St","geo_network":"6","lat":"41.878809","phone":"1(773)534-7599"},"geometry":{"type":"Point","coordinates":[-87.67819526008935,41.87880880820402]}},{"type":"Feature","properties":{"network":"Charter","grade_cat":"HS","zip":"60602","governance":"Charter","school_id":"400098","ald_15":"Brendan M. Reilly","long":"-87.626338","grades":"9, 10, 11, 12","commarea":"LOOP","short_name":"NOBLE - MUCHIN HS","ward_15":"42","address":"1 N State St","geo_network":"6","lat":"41.88274","phone":"1(312)445-4680"},"geometry":{"type":"Point","coordinates":[-87.62633828257938,41.88274025751338]}},{"type":"Feature","properties":{"network":"Charter","grade_cat":"ES","zip":"60632","governance":"Charter","school_id":"400101","ald_15":"George A. Cardenas","long":"-87.693996","grades":"K, 1, 2, 3, 4, 5, 6, 7, 8","commarea":"BRIGHTON PARK","short_name":"UNO - CISNEROS","ward_15":"12","address":"2744 W Pershing Rd","geo_network":"8","lat":"41.822884","phone":"1(312)376-8830"},"geometry":{"type":"Point","coordinates":[-87.69399616166392,41.8228837408415]}},{"type":"Feature","properties":{"network":"Charter","grade_cat":"HS","zip":"60608","governance":"Charter","school_id":"400102","ald_15":"Daniel S. Solis","long":"-87.660107","grades":"9, 10, 11, 12","commarea":"NEAR WEST SIDE","short_name":"URBAN PREP - WEST HS","ward_15":"25","address":"1326 W 14th Pl","geo_network":"6","lat":"41.86254","phone":"1(773)534-8860"},"geometry":{"type":"Point","coordinates":[-87.66010654014806,41.86254001900926]}},{"type":"Feature","properties":{"network":"Charter","grade_cat":"HS","zip":"60608","governance":"Charter","school_id":"400104","ald_15":"Daniel S. Solis","long":"-87.68724","grades":"9, 10, 11, 12","commarea":"LOWER WEST SIDE","short_name":"INSTITUTO - HEALTH","ward_15":"25","address":"2520 S Western Ave","geo_network":"7","lat":"41.845967","phone":"1(773)890-8020"},"geometry":{"type":"Point","coordinates":[-87.68724015857727,41.84596658796288]}},{"type":"Feature","properties":{"network":"Charter","grade_cat":"HS","zip":"60616","governance":"Charter","school_id":"400105","ald_15":"William \"Will\" D. Burns","long":"-87.613629","grades":"9, 10, 11, 12","commarea":"DOUGLAS","short_name":"URBAN PREP - BRONZEVILLE HS","ward_15":"4","address":"521 E 35th St","geo_network":"9","lat":"41.831118","phone":"1(773)495-0870"},"geometry":{"type":"Point","coordinates":[-87.61362864745674,41.831117530464496]}},{"type":"Feature","properties":{"network":"Charter","grade_cat":"HS","zip":"60621","governance":"Charter","school_id":"400106","ald_15":"Willie B. Cochran","long":"-87.635117","grades":"9, 10, 11, 12","commarea":"ENGLEWOOD","short_name":"NOBLE - JOHNSON HS","ward_15":"20","address":"6350 S Stewart Ave","geo_network":"11","lat":"41.778369","phone":"1(312)348-1888"},"geometry":{"type":"Point","coordinates":[-87.63511669814089,41.77836949819535]}},{"type":"Feature","properties":{"network":"Charter","grade_cat":"ES","zip":"60617","governance":"Charter","school_id":"400107","ald_15":"John A. Pope","long":"-87.54558","grades":"K, 1, 2, 3, 4, 5, 6, 7, 8","commarea":"SOUTH CHICAGO","short_name":"LEARN - SOUTH CHICAGO","ward_15":"10","address":"8914 S Buffalo Ave","geo_network":"12","lat":"41.733333","phone":"1(773)722-8577"},"geometry":{"type":"Point","coordinates":[-87.54557989247587,41.733333132396425]}},{"type":"Feature","properties":{"network":"Charter","grade_cat":"HS","zip":"60827","governance":"Charter","school_id":"400108","ald_15":"Anthony A. Beale","long":"-87.601873","grades":"7, 8, 9, 10, 11, 12","commarea":"RIVERDALE","short_name":"CICS - HAWKINS HS","ward_15":"9","address":"801 E 133rd Pl","geo_network":"13","lat":"41.653141","phone":"1(773)264-0505"},"geometry":{"type":"Point","coordinates":[-87.60187328368443,41.6531410568753]}},{"type":"Feature","properties":{"network":"Options","grade_cat":"HS","zip":"60643","governance":"Charter","school_id":"400109","ald_15":"Howard B. Brookins, Jr.","long":"-87.662416","grades":"9, 10, 11, 12","commarea":"WASHINGTON HEIGHTS","short_name":"PROLOGUE - JOHNSTON HS","ward_15":"21","address":"1549 W 95th St","geo_network":"11","lat":"41.721136","phone":"1(773)341-2260"},"geometry":{"type":"Point","coordinates":[-87.66147456602064,41.72112619184844]}},{"type":"Feature","properties":{"network":"Charter","grade_cat":"ES","zip":"60620","governance":"Charter","school_id":"400111","ald_15":"Howard B. Brookins, Jr.","long":"-87.665721","grades":"K, 1, 2, 3, 4, 5, 6, 7","commarea":"AUBURN GRESHAM","short_name":"LEARN - PERKINS","ward_15":"21","address":"1700 W 83rd St","geo_network":"11","lat":"41.743122","phone":"1(773)722-0200"},"geometry":{"type":"Point","coordinates":[-87.6657210550116,41.74312176969033]}},{"type":"Feature","properties":{"network":"Charter","grade_cat":"ES","zip":"60632","governance":"Charter","school_id":"400112","ald_15":"Edward M. Burke","long":"-87.708797","grades":"K, 1, 2, 3, 4, 5, 6, 7, 8","commarea":"GAGE PARK","short_name":"UNO - SOCCER ELEM","ward_15":"14","address":"5050 S Homan Ave","geo_network":"8","lat":"41.801042","phone":"1(312)455-5450"},"geometry":{"type":"Point","coordinates":[-87.70879678374817,41.8010424135067]}},{"type":"Feature","properties":{"network":"Charter","grade_cat":"HS","zip":"60610","governance":"Charter","school_id":"400113","ald_15":"Walter Burnett, Jr.","long":"-87.645561","grades":"6, 7, 8, 9, 10, 11, 12","commarea":"NEAR NORTH SIDE","short_name":"CICS - CHICAGOQUEST HS","ward_15":"27","address":"1443 N Ogden Ave","geo_network":"4","lat":"41.907797","phone":"1(773)565-2100"},"geometry":{"type":"Point","coordinates":[-87.6455614992365,41.90779679515704]}},{"type":"Feature","properties":{"network":"Charter","grade_cat":"ES","zip":"60622","governance":"Charter","school_id":"400114","ald_15":"Proco (Joe) Moreno III","long":"-87.689896","grades":"K, 1, 2, 3, 4, 5, 6, 7, 8","commarea":"WEST TOWN","short_name":"UNO - SANTIAGO","ward_15":"1","address":"2510 W Cortez St","geo_network":"5","lat":"41.900344","phone":"1(312)455-5410"},"geometry":{"type":"Point","coordinates":[-87.68989562535536,41.900343634538686]}},{"type":"Feature","properties":{"network":"Charter","grade_cat":"ES","zip":"60629","governance":"Charter","school_id":"400115","ald_15":"Latasha R. Thomas","long":"-87.693075","grades":"K, 1, 2, 3, 4, 5, 6, 7, 8, 9, 10, 11, 12","commarea":"CHICAGO LAWN","short_name":"CATALYST - MARIA","ward_15":"17","address":"6727 S California Ave","geo_network":"10","lat":"41.770992","phone":"1(773)993-1770"},"geometry":{"type":"Point","coordinates":[-87.69307532228164,41.77099171830565]}},{"type":"Feature","properties":{"network":"Charter","grade_cat":"ES","zip":"60636","governance":"Charter","school_id":"400116","ald_15":"JoAnn Thompson","long":"-87.676147","grades":"K, 1, 2, 3, 4, 5","commarea":"WEST ENGLEWOOD","short_name":"MONTESSORI ENGLEWOOD","ward_15":"16","address":"6550 S Seeley Ave","geo_network":"11","lat":"41.774572","phone":"1(773)306-1759"},"geometry":{"type":"Point","coordinates":[-87.6761467270317,41.77457160183466]}},{"type":"Feature","properties":{"network":"Charter","grade_cat":"HS","zip":"60620","governance":"Charter","school_id":"400117","ald_15":"Howard B. Brookins, Jr.","long":"-87.650987","grades":"9, 10, 11, 12","commarea":"AUBURN GRESHAM","short_name":"NOBLE - HANSBERRY HS","ward_15":"21","address":"8748 S Aberdeen St","geo_network":"11","lat":"41.734442","phone":"1(773)729-3400"},"geometry":{"type":"Point","coordinates":[-87.65098672813494,41.73444162257932]}},{"type":"Feature","properties":{"network":"Charter","grade_cat":"HS","zip":"60624","governance":"Charter","school_id":"400118","ald_15":"Michael D. Chandler","long":"-87.711654","grades":"9, 10, 11, 12","commarea":"NORTH LAWNDALE","short_name":"NOBLE - DRW HS","ward_15":"24","address":"931 S Homan Ave","geo_network":"5","lat":"41.869328","phone":"1(773)893-4500"},"geometry":{"type":"Point","coordinates":[-87.71165422601833,41.86932807602724]}},{"type":"Feature","properties":{"network":"Charter","grade_cat":"HS","zip":"60612","governance":"Charter","school_id":"400119","ald_15":"Jason C. Ervin","long":"-87.733778","grades":"9, 10, 11, 12","commarea":"WEST GARFIELD PARK","short_name":"LEGAL PREP HS","ward_15":"28","address":"4319 W Washington Blvd","geo_network":"5","lat":"41.881733","phone":"1(773)922-7800"},"geometry":{"type":"Point","coordinates":[-87.73377838257323,41.88173275809993]}},{"type":"Feature","properties":{"network":"Charter","grade_cat":"ES","zip":"60707","governance":"Charter","school_id":"400120","ald_15":"Deborah L. Graham","long":"-87.78783","grades":"K, 1, 2, 3, 4, 5, 6, 7, 8","commarea":"BELMONT CRAGIN","short_name":"UNO - CLEMENTE","ward_15":"29","address":"2050 N Natchez Ave","geo_network":"3","lat":"41.917952","phone":"1(312)455-5425"},"geometry":{"type":"Point","coordinates":[-87.78783043766516,41.917951679251956]}},{"type":"Feature","properties":{"network":"Charter","grade_cat":"ES","zip":"60645","governance":"Charter","school_id":"400121","ald_15":"Joe A. Moore","long":"-87.684406","grades":"K, 1, 2, 3, 4, 5, 6, 7, 8, 9, 10, 11","commarea":"WEST RIDGE","short_name":"UNO - ROGERS PARK","ward_15":"49","address":"7416 N Ridge Blvd","geo_network":"2","lat":"42.016476","phone":"1(312)455-5440"},"geometry":{"type":"Point","coordinates":[-87.68440568197208,42.01647588122094]}},{"type":"Feature","properties":{"network":"Options","grade_cat":"HS","zip":"60644","governance":"Charter","school_id":"400123","ald_15":"Jason C. Ervin","long":"-87.742539","grades":"10, 11, 12","commarea":"AUSTIN","short_name":"YCCS - SCHOLASTIC ACHIEVEMENT","ward_15":"28","address":"4651 W Madison St","geo_network":"3","lat":"41.880447","phone":"1(773)921-1315"},"geometry":{"type":"Point","coordinates":[-87.74253889903409,41.88044718691512]}},{"type":"Feature","properties":{"network":"Options","grade_cat":"HS","zip":"60616","governance":"Charter","school_id":"400124","ald_15":"Patricia R. Dowell","long":"-87.625331","grades":"10, 11, 12","commarea":"DOUGLAS","short_name":"YCCS - MCKINLEY","ward_15":"3","address":"2920 S Wabash Ave","geo_network":"9","lat":"41.841331","phone":"1(312)949-5010"},"geometry":{"type":"Point","coordinates":[-87.62533077021693,41.84133116687557]}},{"type":"Feature","properties":{"network":"Options","grade_cat":"HS","zip":"60641","governance":"Charter","school_id":"400125","ald_15":"Ariel E. Reboyras","long":"-87.727137","grades":"10, 11, 12","commarea":"AVONDALE","short_name":"YCCS - ASPIRA PANTOJA","ward_15":"30","address":"3121 N Pulaski Rd","geo_network":"4","lat":"41.938187","phone":"1(773)252-0970"},"geometry":{"type":"Point","coordinates":[-87.72713735979745,41.93818660277678]}},{"type":"Feature","properties":{"network":"Options","grade_cat":"HS","zip":"60651","governance":"Charter","school_id":"400126","ald_15":"Roberto Maldonado","long":"-87.70686","grades":"10, 11","commarea":"HUMBOLDT PARK","short_name":"YCCS - ASSOCIATION HOUSE","ward_15":"26","address":"1116 N Kedzie Ave","geo_network":"5","lat":"41.901572","phone":"1(773)772-7170"},"geometry":{"type":"Point","coordinates":[-87.70685988337249,41.901572406590965]}},{"type":"Feature","properties":{"network":"Options","grade_cat":"HS","zip":"60651","governance":"Charter","school_id":"400127","ald_15":"Emma M. Mitts","long":"-87.760221","grades":"10, 11, 12","commarea":"AUSTIN","short_name":"YCCS - AUSTIN CAREER","ward_15":"37","address":"5352 W Chicago Ave","geo_network":"3","lat":"41.894976","phone":"1(773)626-6988"},"geometry":{"type":"Point","coordinates":[-87.76022117541595,41.894976390364945]}},{"type":"Feature","properties":{"network":"Options","grade_cat":"HS","zip":"60623","governance":"Charter","school_id":"400128","ald_15":"Michael D. Chandler","long":"-87.723662","grades":"10, 11, 12","commarea":"NORTH LAWNDALE","short_name":"YCCS - CCA ACADEMY","ward_15":"24","address":"1231 S Pulaski Rd","geo_network":"5","lat":"41.864943","phone":"1(773)762-2272"},"geometry":{"type":"Point","coordinates":[-87.72366217187063,41.864943352149254]}},{"type":"Feature","properties":{"network":"Options","grade_cat":"HS","zip":"60637","governance":"Charter","school_id":"400129","ald_15":"Patricia R. Dowell","long":"-87.61574","grades":"10, 11, 12","commarea":"WOODLAWN","short_name":"YCCS - HOUSTON","ward_15":"3","address":"6620 S Dr Martin Luther King Jr Dr","geo_network":"9","lat":"41.773962","phone":"1(773)723-9631"},"geometry":{"type":"Point","coordinates":[-87.61356238526882,41.77418269849911]}},{"type":"Feature","properties":{"network":"Options","grade_cat":"HS","zip":"60620","governance":"Charter","school_id":"400130","ald_15":"Roderick T. Sawyer","long":"-87.641731","grades":"10, 11, 12","commarea":"AUBURN GRESHAM","short_name":"YCCS - YOUTH DEVELOPMENT","ward_15":"6","address":"7836 S Union Ave","geo_network":"11","lat":"41.751377","phone":"1(773)224-2273"},"geometry":{"type":"Point","coordinates":[-87.64173118688463,41.75137711160915]}},{"type":"Feature","properties":{"network":"Options","grade_cat":"HS","zip":"60622","governance":"Charter","school_id":"400131","ald_15":"Roberto Maldonado","long":"-87.696006","grades":"10, 11, 12","commarea":"WEST TOWN","short_name":"YCCS - CAMPOS","ward_15":"26","address":"2739 W Division St","geo_network":"5","lat":"41.90285","phone":"1(773)342-8022"},"geometry":{"type":"Point","coordinates":[-87.69600602271211,41.90284969690219]}},{"type":"Feature","properties":{"network":"Options","grade_cat":"HS","zip":"60602","governance":"Charter","school_id":"400133","ald_15":"Brendan M. Reilly","long":"-87.627734","grades":"10, 11, 12","commarea":"LOOP","short_name":"YCCS - INNOVATIONS","ward_15":"42","address":"17 N. State St.","geo_network":"6","lat":"41.883047","phone":"1(312)999-9360"},"geometry":{"type":"Point","coordinates":[-87.62773414533866,41.88304717129258]}},{"type":"Feature","properties":{"network":"Options","grade_cat":"HS","zip":"60616","governance":"Charter","school_id":"400134","ald_15":"James A. Balcer","long":"-87.644888","grades":"10, 11, 12","commarea":"LOWER WEST SIDE","short_name":"YCCS - ADDAMS","ward_15":"11","address":"1814 S Union Ave","geo_network":"7","lat":"41.857208","phone":"1(312)563-1748"},"geometry":{"type":"Point","coordinates":[-87.64488797557976,41.85720785611458]}},{"type":"Feature","properties":{"network":"Options","grade_cat":"HS","zip":"60608","governance":"Charter","school_id":"400135","ald_15":"George A. Cardenas","long":"-87.69543","grades":"10, 11, 12","commarea":"SOUTH LAWNDALE","short_name":"YCCS - LATINO YOUTH","ward_15":"12","address":"2001 S California Ave","geo_network":"7","lat":"41.854665","phone":"1(773)648-2130"},"geometry":{"type":"Point","coordinates":[-87.69543001372814,41.85466465534544]}},{"type":"Feature","properties":{"network":"Options","grade_cat":"HS","zip":"60628","governance":"Charter","school_id":"400136","ald_15":"Michelle A. Harris","long":"-87.592333","grades":"10, 11","commarea":"PULLMAN","short_name":"YCCS - OLIVE HARVEY","ward_15":"8","address":"10001 S Woodlawn Ave","geo_network":"12","lat":"41.712922","phone":"1(773)291-6517"},"geometry":{"type":"Point","coordinates":[-87.59233320205446,41.71292209999135]}},{"type":"Feature","properties":{"network":"Options","grade_cat":"HS","zip":"60653","governance":"Contract","school_id":"400137","ald_15":"William \"Will\" D. Burns","long":"-87.59934","grades":"9, 10, 11, 12","commarea":"KENWOOD","short_name":"LITTLE BLACK PEARL HS","ward_15":"4","address":"1060 E 47th St","geo_network":"9","lat":"41.809695","phone":"1(773)690-5500"},"geometry":{"type":"Point","coordinates":[-87.59933994051981,41.80969549575752]}},{"type":"Feature","properties":{"network":"Options","grade_cat":"HS","zip":"60617","governance":"Charter","school_id":"400139","ald_15":"Michelle A. Harris","long":"-87.578492","grades":"10, 11","commarea":"AVALON PARK","short_name":"YCCS - SULLIVAN","ward_15":"8","address":"8164 S South Chicago Ave","geo_network":"12","lat":"41.746287","phone":"1(773)978-8680"},"geometry":{"type":"Point","coordinates":[-87.57849166986543,41.74628656952744]}},{"type":"Feature","properties":{"network":"Options","grade_cat":"HS","zip":"60640","governance":"Charter","school_id":"400141","ald_15":"James Cappleman","long":"-87.659239","grades":"10, 11, 12","commarea":"UPTOWN","short_name":"YCCS - TRUMAN","ward_15":"46","address":"1145 W Wilson Ave","geo_network":"2","lat":"41.965295","phone":"1(773)907-4840"},"geometry":{"type":"Point","coordinates":[-87.65923928994071,41.96529481641866]}},{"type":"Feature","properties":{"network":"Options","grade_cat":"HS","zip":"60612","governance":"Charter","school_id":"400142","ald_15":"Walter Burnett, Jr.","long":"-87.674138","grades":"10, 11, 12","commarea":"NEAR WEST SIDE","short_name":"YCCS - VIRTUAL","ward_15":"27","address":"1900 W Van Buren St","geo_network":"6","lat":"41.876317","phone":"1(312)429-0027"},"geometry":{"type":"Point","coordinates":[-87.6741384012902,41.876316727196624]}},{"type":"Feature","properties":{"network":"Options","grade_cat":"HS","zip":"60612","governance":"Charter","school_id":"400143","ald_15":"Walter Burnett, Jr.","long":"-87.702053","grades":"10, 11","commarea":"HUMBOLDT PARK","short_name":"YCCS - WEST TOWN","ward_15":"27","address":"500 N Sacramento Blvd","geo_network":"5","lat":"41.890803","phone":"1(312)563-9044"},"geometry":{"type":"Point","coordinates":[-87.70205280069851,41.890803121149155]}},{"type":"Feature","properties":{"network":"Options","grade_cat":"HS","zip":"60651","governance":"Charter","school_id":"400144","ald_15":"Emma M. Mitts","long":"-87.74881","grades":"10, 11, 12","commarea":"AUSTIN","short_name":"YCCS - WESTSIDE HOLISTIC","ward_15":"37","address":"4909 W Division St","geo_network":"3","lat":"41.90224","phone":"1(773)261-0994"},"geometry":{"type":"Point","coordinates":[-87.74881028931917,41.902240031833365]}},{"type":"Feature","properties":{"network":"Options","grade_cat":"HS","zip":"60616","governance":"Charter","school_id":"400145","ald_15":"Patricia R. Dowell","long":"-87.626781","grades":"10, 11, 12","commarea":"DOUGLAS","short_name":"YCCS - YOUTH CONNECTION","ward_15":"3","address":"3424 S State St","geo_network":"9","lat":"41.832072","phone":"1(312)225-4668"},"geometry":{"type":"Point","coordinates":[-87.62678146947087,41.832072058158424]}},{"type":"Feature","properties":{"network":"Charter","grade_cat":"ES","zip":"60644","governance":"Charter","school_id":"400146","ald_15":"Emma M. Mitts","long":"-87.746614","grades":"5, 6, 7, 8","commarea":"AUSTIN","short_name":"KIPP CHICAGO - CREATE","ward_15":"37","address":"4818 W Ohio St","geo_network":"3","lat":"41.891816","phone":"1(773)938-8553"},"geometry":{"type":"Point","coordinates":[-87.74661383905315,41.89181614207475]}},{"type":"Feature","properties":{"network":"Options","grade_cat":"HS","zip":"60643","governance":"Contract","school_id":"400147","ald_15":"Carrie M. Austin","long":"-87.654248","grades":"9, 10, 11, 12","commarea":"MORGAN PARK","short_name":"CAMELOT - CHICAGO EXCEL HS","ward_15":"34","address":"1257 W 111th St","geo_network":"13","lat":"41.691953","phone":"1(773)629-8379"},"geometry":{"type":"Point","coordinates":[-87.65372653770633,41.691969313501716]}},{"type":"Feature","properties":{"network":"Options","grade_cat":"HS","zip":"60608","governance":"Charter","school_id":"400148","ald_15":"Daniel S. Solis","long":"-87.684065","grades":"9, 10, 11, 12","commarea":"LOWER WEST SIDE","short_name":"INSTITUTO - LOZANO HS","ward_15":"25","address":"2570 S Blue Island Ave","geo_network":"7","lat":"41.845446","phone":"1(773)696-3610"},"geometry":{"type":"Point","coordinates":[-87.68406493808419,41.84544601533066]}},{"type":"Feature","properties":{"network":"Charter","grade_cat":"HS","zip":"60632","governance":"Charter","school_id":"400149","ald_15":"Edward M. Burke","long":"-87.711025","grades":"8, 9, 10, 11","commarea":"GAGE PARK","short_name":"UNO - SOCCER HS","ward_15":"14","address":"5025 S Saint Louis Ave","geo_network":"8","lat":"41.801762","phone":"1(312)455-5446"},"geometry":{"type":"Point","coordinates":[-87.71102498431937,41.80176224554366]}},{"type":"Feature","properties":{"network":"Options","grade_cat":"HS","zip":"60619","governance":"Charter","school_id":"400150","ald_15":"Michelle A. Harris","long":"-87.60698","grades":"10, 11, 12","commarea":"CHATHAM","short_name":"YCCS - CHATHAM","ward_15":"8","address":"9035 S Langley Ave","geo_network":"12","lat":"41.730131","phone":"1(773)651-1500"},"geometry":{"type":"Point","coordinates":[-87.60697990890328,41.73013138447743]}},{"type":"Feature","properties":{"network":"Charter","grade_cat":"ES","zip":"60612?","governance":"Charter","school_id":"400151","ald_15":"Walter Burnett, Jr.","long":"-87.701397","grades":"K, 1, 2, 3, 4, 5","commarea":"EAST GARFIELD PARK","short_name":"LEARN - 7","ward_15":"27","address":"3021 W Carroll Ave","geo_network":"5","lat":"41.88741","phone":"1(773)584-4350"},"geometry":{"type":"Point","coordinates":[-87.70139734989546,41.88741028428423]}},{"type":"Feature","properties":{"network":"Charter","grade_cat":"ES","zip":"60632","governance":"Charter","school_id":"400153","ald_15":"Toni L. Foulkes","long":"-87.693238","grades":"K, 1, 2, 3, 4, 5, 6, 7, 8","commarea":"BRIGHTON PARK","short_name":"UNO - BRIGHTON PARK","ward_15":"15","address":"4420 S Fairfield Ave","geo_network":"8","lat":"41.813109","phone":"1(312)455-5434"},"geometry":{"type":"Point","coordinates":[-87.6932383845312,41.81310944476644]}},{"type":"Feature","properties":{"network":"Charter","grade_cat":"HS","zip":"60628","governance":"Charter","school_id":"400156","ald_15":"Anthony A. Beale","long":"-87.602573","grades":"9, 10, 11","commarea":"PULLMAN","short_name":"NOBLE - BUTLER HS","ward_15":"9","address":"821 E 103rd St","geo_network":"13","lat":"41.706667","phone":"1(312)835-1863"},"geometry":{"type":"Point","coordinates":[-87.6025733174385,41.70666685789389]}},{"type":"Feature","properties":{"network":"Charter","grade_cat":"HS","zip":"60617","governance":"Charter","school_id":"400157","ald_15":"Natashia Holmes","long":"-87.556201","grades":"9, 10, 11","commarea":"SOUTH CHICAGO","short_name":"NOBLE - BAKER HS","ward_15":"7","address":"2710 E 89th St","geo_network":"12","lat":"41.734622","phone":"1(773)535-6340"},"geometry":{"type":"Point","coordinates":[-87.55620144126588,41.734622370920235]}},{"type":"Feature","properties":{"network":"Charter","grade_cat":"ES","zip":"60639","governance":"Charter","school_id":"400159","ald_15":"Nicholas Sposato","long":"-87.757522","grades":"K, 1, 2, 3","commarea":"BELMONT CRAGIN","short_name":"CHRISTOPHER HOUSE","ward_15":"36","address":"5235 W Belden Ave","geo_network":"3","lat":"41.922181","phone":"1(773)472-1083"},"geometry":{"type":"Point","coordinates":[-87.75752152826216,41.922181155970016]}},{"type":"Feature","properties":{"network":"Charter","grade_cat":"HS","zip":"60628","governance":"Charter","school_id":"400161","ald_15":"Anthony A. Beale","long":"-87.617968","grades":"4, 5, 6, 7","commarea":"WEST PULLMAN","short_name":"CHICAGO COLLEGIATE","ward_15":"9","address":"11816 S Indiana Ave","geo_network":"13","lat":"41.679318","phone":"1(773)536-9098"},"geometry":{"type":"Point","coordinates":[-87.61796787117214,41.67931844206332]}},{"type":"Feature","properties":{"network":"Charter","grade_cat":"HS","zip":"60641","governance":"Charter","school_id":"400162","ald_15":"Ariel E. Reboyras","long":"-87.741129","grades":"7, 8, 9, 10, 11","commarea":"IRVING PARK","short_name":"INTRINSIC HS","ward_15":"30","address":"4540 W Belmont Ave","geo_network":"1","lat":"41.938988","phone":"1(708)887-2735"},"geometry":{"type":"Point","coordinates":[-87.74112862650028,41.93898842805861]}},{"type":"Feature","properties":{"network":"Charter","grade_cat":"ES","zip":"60621","governance":"Charter","school_id":"400163","ald_15":"Willie B. Cochran","long":"-87.639967","grades":"5, 6, 7","commarea":"ENGLEWOOD","short_name":"KIPP CHICAGO - BLOOM","ward_15":"20","address":"5515 S Lowe Ave","geo_network":"11","lat":"41.793556","phone":"1(773)938-8565"},"geometry":{"type":"Point","coordinates":[-87.63996733124056,41.7935562671543]}},{"type":"Feature","properties":{"network":"Options","grade_cat":"HS","zip":"60608","governance":"Charter","school_id":"400164","ald_15":"Daniel S. Solis","long":"-87.685903","grades":"9, 10, 11, 12","commarea":"LOWER WEST SIDE","short_name":"INSTITUTO - LOZANO MASTERY HS","ward_15":"25","address":"2520 S Western Ave","geo_network":"7","lat":"41.845957","phone":"1(773)696-3610 x4645"},"geometry":{"type":"Point","coordinates":[-87.68590261102727,41.845956673444746]}},{"type":"Feature","properties":{"network":"Charter","grade_cat":"ES","zip":"60612?","governance":"Charter","school_id":"400165","ald_15":"Walter Burnett, Jr.","long":"-87.702704","grades":"6, 7, 8","commarea":"EAST GARFIELD PARK","short_name":"LEARN - MIDDLE","ward_15":"27","address":"3021 W Carroll Ave","geo_network":"5","lat":"41.887413","phone":"1(773)584-4300"},"geometry":{"type":"Point","coordinates":[-87.70270389867642,41.88741270254248]}},{"type":"Feature","properties":{"network":"Charter","grade_cat":"ES","zip":"60609","governance":"Charter","school_id":"400167","ald_15":"Toni L. Foulkes","long":"-87.683963","grades":"K, 1, 2, 3, 4, 5, 6, 7, 8","commarea":"GAGE PARK","short_name":"HORIZON - SOUTHWEST","ward_15":"15","address":"5401 S. Western","geo_network":"8","lat":"41.795201","phone":"1(773)498-3355"},"geometry":{"type":"Point","coordinates":[-87.68396339287392,41.79520095266694]}},{"type":"Feature","properties":{"network":"Charter","grade_cat":"HS","zip":"60639","governance":"Charter","school_id":"400169","ald_15":"Ariel E. Reboyras","long":"-87.769808","grades":"9, 10","commarea":"BELMONT CRAGIN","short_name":"NOBLE - ITW SPEER HS","ward_15":"30","address":"2456 N. Mango Ave.","geo_network":"3","lat":"41.92563","phone":"1(773)278-6895"},"geometry":{"type":"Point","coordinates":[-87.76980777377591,41.92563027099737]}},{"type":"Feature","properties":{"network":"Charter","grade_cat":"HS","zip":"60610","governance":"Charter","school_id":"400170","ald_15":"Walter Burnett, Jr.","long":"-87.645577","grades":"9, 10","commarea":"NEAR NORTH SIDE","short_name":"NOBLE - ACADEMY HS","ward_15":"27","address":"1443 N Ogden Ave","geo_network":"4","lat":"41.906879","phone":"1(773)862-1449"},"geometry":{"type":"Point","coordinates":[-87.64557693645881,41.90687879476261]}},{"type":"Feature","properties":{"network":"Charter","grade_cat":"HS","zip":"60643","governance":"Charter","school_id":"400171","ald_15":"Carrie M. Austin","long":"-87.653535","grades":"6, 7, 8","commarea":"MORGAN PARK","short_name":"FOUNDATIONS","ward_15":"34","address":"1233 W. 109th Street","geo_network":"13","lat":"41.694671","phone":"1(773)298-5800"},"geometry":{"type":"Point","coordinates":[-87.65353524849981,41.69467073849163]}},{"type":"Feature","properties":{"network":"Options","grade_cat":"HS","zip":"60632","governance":"ALOP","school_id":"400173","ald_15":"Edward M. Burke","long":"-87.702645","grades":"9, 10, 11, 12","commarea":"BRIGHTON PARK","short_name":"PATHWAYS - BRIGHTON PARK HS","ward_15":"14","address":"3124 W. 47th Street","geo_network":"8","lat":"41.808226","phone":"1(773)588-5007"},"geometry":{"type":"Point","coordinates":[-87.70264475188843,41.80822578508329]}},{"type":"Feature","properties":{"network":"Options","grade_cat":"HS","zip":"60649","governance":"Contract","school_id":"400175","ald_15":"Natashia Holmes","long":"-87.556487","grades":"9, 10, 11, 12","commarea":"WOODLAWN","short_name":"CAMELOT - EXCEL WOODLAWN HS","ward_15":"7","address":"7530 S South Shore Dr","geo_network":"9","lat":"41.759749","phone":"1(773)902-7800"},"geometry":{"type":"Point","coordinates":[-87.55648708381439,41.75974863887013]}},{"type":"Feature","properties":{"network":"Options","grade_cat":"HS","zip":"60629","governance":"Contract","school_id":"400176","ald_15":"Latasha R. Thomas","long":"-87.69073","grades":"9, 10, 11, 12","commarea":"AUBURN GRESHAM","short_name":"CAMELOT - EXCEL SOUTHWEST HS","ward_15":"17","address":"7014 S Washtenaw Ave","geo_network":"11","lat":"41.765929","phone":"1(773)424-0721"},"geometry":{"type":"Point","coordinates":[-87.69073009144797,41.765928920283464]}},{"type":"Feature","properties":{"network":"Charter","grade_cat":"ES","zip":"60623","governance":"Charter","school_id":"400177","ald_15":"Michael D. Chandler","long":"-87.709287","grades":"K, 1, 2, 3, 4, 5","commarea":"NORTH LAWNDALE","short_name":"KIPP CHICAGO - ASCEND PRIMARY","ward_15":"24","address":"1440 S. Christiana","geo_network":"5","lat":"41.861174","phone":"1(773)522-1261"},"geometry":{"type":"Point","coordinates":[-87.70928683026301,41.861174188233996]}},{"type":"Feature","properties":{"network":"OS4","grade_cat":"HS","zip":"60617","governance":"District","school_id":"609674","ald_15":"Michelle A. Harris","long":"-87.573268","grades":"9, 10, 11, 12","commarea":"AVALON PARK","short_name":"CHICAGO VOCATIONAL HS","ward_15":"8","address":"2100 E 87th St","geo_network":"12","lat":"41.737174","phone":"1(773)535-6100"},"geometry":{"type":"Point","coordinates":[-87.57326751564459,41.737173933540554]}},{"type":"Feature","properties":{"network":"Network 9","grade_cat":"HS","zip":"60616","governance":"District","school_id":"609676","ald_15":"William \"Will\" D. Burns","long":"-87.617637","grades":"9, 10, 11, 12","commarea":"DOUGLAS","short_name":"DUNBAR HS","ward_15":"4","address":"3000 S King Dr","geo_network":"9","lat":"41.840226","phone":"1(773)534-9000"},"geometry":{"type":"Point","coordinates":[-87.61763743510639,41.8402255713266]}},{"type":"Feature","properties":{"network":"ISP","grade_cat":"HS","zip":"60605","governance":"District","school_id":"609678","ald_15":"William \"Will\" D. Burns","long":"-87.627675","grades":"9, 10, 11, 12","commarea":"LOOP","short_name":"JONES HS","ward_15":"4","address":"700 S State St","geo_network":"6","lat":"41.873066","phone":"1(773)534-8600"},"geometry":{"type":"Point","coordinates":[-87.6276753224599,41.87306592278668]}},{"type":"Feature","properties":{"network":"Network 3","grade_cat":"HS","zip":"60639","governance":"District","school_id":"609679","ald_15":"Nicholas Sposato","long":"-87.761048","grades":"9, 10, 11, 12","commarea":"BELMONT CRAGIN","short_name":"PROSSER HS","ward_15":"36","address":"2148 N Long Ave","geo_network":"3","lat":"41.920059","phone":"1(773)534-3200"},"geometry":{"type":"Point","coordinates":[-87.76104831550296,41.920059399235065]}},{"type":"Feature","properties":{"network":"ISP","grade_cat":"HS","zip":"60610","governance":"District","school_id":"609680","ald_15":"Walter Burnett, Jr.","long":"-87.635385","grades":"9, 10, 11, 12","commarea":"NEAR NORTH SIDE","short_name":"PAYTON HS","ward_15":"27","address":"1034 N Wells St","geo_network":"6","lat":"41.901575","phone":"1(773)534-0034"},"geometry":{"type":"Point","coordinates":[-87.63538476565044,41.90157516923655]}},{"type":"Feature","properties":{"network":"Network 8","grade_cat":"HS","zip":"60609","governance":"District","school_id":"609682","ald_15":"Willie B. Cochran","long":"-87.662278","grades":"9, 10, 11, 12","commarea":"NEW CITY","short_name":"RICHARDS HS","ward_15":"20","address":"5009 S Laflin St","geo_network":"8","lat":"41.802881","phone":"1(773)535-4945"},"geometry":{"type":"Point","coordinates":[-87.66227784528805,41.80288137488922]}},{"type":"Feature","properties":{"network":"Network 5","grade_cat":"HS","zip":"60639","governance":"District","school_id":"609691","ald_15":"Nicholas Sposato","long":"-87.735238","grades":"9, 10, 11, 12","commarea":"HUMBOLDT PARK","short_name":"NORTH-GRAND HS","ward_15":"36","address":"4338 W Wabansia Ave","geo_network":"5","lat":"41.911674","phone":"1(773)534-8520"},"geometry":{"type":"Point","coordinates":[-87.73523755590614,41.911673691951975]}},{"type":"Feature","properties":{"network":"Network 11","grade_cat":"HS","zip":"60620","governance":"District","school_id":"609692","ald_15":"Howard B. Brookins, Jr.","long":"-87.63541","grades":"9, 10, 11, 12","commarea":"CHATHAM","short_name":"SIMEON HS","ward_15":"21","address":"8147 S Vincennes Ave","geo_network":"11","lat":"41.745781","phone":"1(773)535-3200"},"geometry":{"type":"Point","coordinates":[-87.63541036866685,41.745781229905525]}},{"type":"Feature","properties":{"network":"Network 5","grade_cat":"HS","zip":"60624","governance":"District","school_id":"609693","ald_15":"Jason C. Ervin","long":"-87.707332","grades":"9, 10, 11, 12","commarea":"HUMBOLDT PARK","short_name":"WESTINGHOUSE HS","ward_15":"28","address":"3223 W Franklin Blvd","geo_network":"5","lat":"41.889977","phone":"1(773)534-6400"},"geometry":{"type":"Point","coordinates":[-87.70733230851017,41.88997720284965]}},{"type":"Feature","properties":{"network":"Network 8","grade_cat":"HS","zip":"60629","governance":"District","school_id":"609694","ald_15":"Marty Quinn","long":"-87.72447","grades":"9, 10, 11, 12","commarea":"WEST ELSDON","short_name":"HANCOCK HS","ward_15":"13","address":"4034 W 56th St","geo_network":"8","lat":"41.791464","phone":"1(773)535-2410"},"geometry":{"type":"Point","coordinates":[-87.7244704648031,41.79146390857298]}},{"type":"Feature","properties":{"network":"Network 2","grade_cat":"HS","zip":"60625","governance":"District","school_id":"609695","ald_15":"Patrick O'Connor","long":"-87.679484","grades":"9, 10, 11, 12","commarea":"LINCOLN SQUARE","short_name":"AMUNDSEN HS","ward_15":"40","address":"5110 N Damen Ave","geo_network":"2","lat":"41.975067","phone":"1(773)534-2320"},"geometry":{"type":"Point","coordinates":[-87.67948421515057,41.975067256161616]}},{"type":"Feature","properties":{"network":"OS4","grade_cat":"HS","zip":"60652","governance":"District","school_id":"609698","ald_15":"Lona Lane","long":"-87.721097","grades":"9, 10, 11, 12","commarea":"ASHBURN","short_name":"BOGAN HS","ward_15":"18","address":"3939 W 79th St","geo_network":"10","lat":"41.749376","phone":"1(773)535-2180"},"geometry":{"type":"Point","coordinates":[-87.72109744581068,41.74937560925903]}},{"type":"Feature","properties":{"network":"Network 7","grade_cat":"HS","zip":"60623","governance":"District","school_id":"609704","ald_15":"Ricardo Munoz","long":"-87.708706","grades":"PK, 9, 10, 11, 12","commarea":"SOUTH LAWNDALE","short_name":"FARRAGUT HS","ward_15":"22","address":"2345 S Christiana Ave","geo_network":"7","lat":"41.84856","phone":"1(773)534-1300"},"geometry":{"type":"Point","coordinates":[-87.70870563207117,41.84855987425176]}},{"type":"Feature","properties":{"network":"Network 13","grade_cat":"HS","zip":"60628","governance":"District","school_id":"609705","ald_15":"Carrie M. Austin","long":"-87.637572","grades":"9, 10, 11, 12","commarea":"ROSELAND","short_name":"FENGER HS","ward_15":"34","address":"11220 S Wallace St","geo_network":"13","lat":"41.689951","phone":"1(773)535-5430"},"geometry":{"type":"Point","coordinates":[-87.63757205073344,41.68995072460742]}},{"type":"Feature","properties":{"network":"Network 11","grade_cat":"HS","zip":"60621","governance":"District","school_id":"609707","ald_15":"Roderick T. Sawyer","long":"-87.637153","grades":"9, 10, 11, 12","commarea":"ENGLEWOOD","short_name":"ROBESON HS","ward_15":"6","address":"6835 S Normal Blvd","geo_network":"11","lat":"41.769714","phone":"1(773)535-3800"},"geometry":{"type":"Point","coordinates":[-87.63715271751444,41.76971379519646]}},{"type":"Feature","properties":{"network":"Network 1","grade_cat":"HS","zip":"60641","governance":"District","school_id":"609708","ald_15":"Ray Suarez","long":"-87.754167","grades":"9, 10, 11, 12","commarea":"PORTAGE PARK","short_name":"FOREMAN HS","ward_15":"31","address":"3235 N LeClaire Ave","geo_network":"1","lat":"41.939797","phone":"1(773)534-3400"},"geometry":{"type":"Point","coordinates":[-87.75416654341426,41.93979676706975]}},{"type":"Feature","properties":{"network":"Network 8","grade_cat":"HS","zip":"60629","governance":"District","school_id":"609709","ald_15":"Toni L. Foulkes","long":"-87.688954","grades":"9, 10, 11, 12","commarea":"GAGE PARK","short_name":"GAGE PARK HS","ward_15":"15","address":"5630 S Rockwell St","geo_network":"8","lat":"41.791013","phone":"1(773)535-9230"},"geometry":{"type":"Point","coordinates":[-87.68895394224992,41.791012838392405]}},{"type":"Feature","properties":{"network":"Network 12","grade_cat":"HS","zip":"60628","governance":"District","school_id":"609710","ald_15":"Anthony A. Beale","long":"-87.620623","grades":"7, 8, 9, 10, 11, 12","commarea":"ROSELAND","short_name":"HARLAN HS","ward_15":"9","address":"9652 S Michigan Ave","geo_network":"12","lat":"41.718372","phone":"1(773)535-5400"},"geometry":{"type":"Point","coordinates":[-87.62062343653518,41.7183723456041]}},{"type":"Feature","properties":{"network":"Network 11","grade_cat":"HS","zip":"60636","governance":"District","school_id":"609711","ald_15":"Toni L. Foulkes","long":"-87.669089","grades":"9, 10, 11, 12","commarea":"WEST ENGLEWOOD","short_name":"HARPER HS","ward_15":"15","address":"6520 S Wood St","geo_network":"11","lat":"41.775124","phone":"1(773)535-9150"},"geometry":{"type":"Point","coordinates":[-87.66908929605185,41.77512408325922]}},{"type":"Feature","properties":{"network":"OS4","grade_cat":"HS","zip":"60619","governance":"District","school_id":"609712","ald_15":"Michelle A. Harris","long":"-87.601727","grades":"9, 10, 11, 12","commarea":"GREATER GRAND CROSSING","short_name":"HIRSCH HS","ward_15":"8","address":"7740 S Ingleside Ave","geo_network":"12","lat":"41.753748","phone":"1(773)535-3100"},"geometry":{"type":"Point","coordinates":[-87.60172726591252,41.753747955321906]}},{"type":"Feature","properties":{"network":"Network 9","grade_cat":"HS","zip":"60637","governance":"District","school_id":"609713","ald_15":"Leslie A. Hairston","long":"-87.586615","grades":"9, 10, 11, 12","commarea":"WOODLAWN","short_name":"HYDE PARK HS","ward_15":"5","address":"6220 S Stony Island Ave","geo_network":"9","lat":"41.782257","phone":"1(773)535-0880"},"geometry":{"type":"Point","coordinates":[-87.58661501015993,41.782256926776796]}},{"type":"Feature","properties":{"network":"OS4","grade_cat":"HS","zip":"60632","governance":"District","school_id":"609715","ald_15":"George A. Cardenas","long":"-87.694639","grades":"9, 10, 11, 12","commarea":"BRIGHTON PARK","short_name":"KELLY HS","ward_15":"12","address":"4136 S California Ave","geo_network":"8","lat":"41.818729","phone":"1(773)535-4900"},"geometry":{"type":"Point","coordinates":[-87.69463865995434,41.81872906331999]}},{"type":"Feature","properties":{"network":"Network 4","grade_cat":"HS","zip":"60639","governance":"District","school_id":"609716","ald_15":"Ray Suarez","long":"-87.735999","grades":"7, 8, 9, 10, 11, 12","commarea":"HERMOSA","short_name":"KELVYN PARK HS","ward_15":"31","address":"4343 W Wrightwood Ave","geo_network":"4","lat":"41.927918","phone":"1(773)534-4200"},"geometry":{"type":"Point","coordinates":[-87.73599882204394,41.92791840255751]}},{"type":"Feature","properties":{"network":"Network 10","grade_cat":"HS","zip":"60638","governance":"District","school_id":"609718","ald_15":"Marty Quinn","long":"-87.78084","grades":"9, 10, 11, 12","commarea":"GARFIELD RIDGE","short_name":"KENNEDY HS","ward_15":"13","address":"6325 W 56th St","geo_network":"10","lat":"41.789961","phone":"1(773)535-2325"},"geometry":{"type":"Point","coordinates":[-87.78083975557989,41.789961251743584]}},{"type":"Feature","properties":{"network":"Network 2","grade_cat":"HS","zip":"60613","governance":"District","school_id":"609719","ald_15":"Ameya Pawar","long":"-87.668953","grades":"9, 10, 11, 12","commarea":"LAKE VIEW","short_name":"LAKE VIEW HS","ward_15":"47","address":"4015 N Ashland Ave","geo_network":"2","lat":"41.954764","phone":"1(773)534-5440"},"geometry":{"type":"Point","coordinates":[-87.66895268957454,41.954764066986755]}},{"type":"Feature","properties":{"network":"Network 4","grade_cat":"HS","zip":"60618","governance":"District","school_id":"609720","ald_15":"Ameya Pawar","long":"-87.691013","grades":"7, 8, 9, 10, 11, 12","commarea":"NORTH CENTER","short_name":"LANE TECH HS","ward_15":"47","address":"2501 W Addison St","geo_network":"4","lat":"41.946645","phone":"1(773)534-5400"},"geometry":{"type":"Point","coordinates":[-87.69101262731388,41.94664457379102]}},{"type":"Feature","properties":{"network":"Network 5","grade_cat":"HS","zip":"60612","governance":"District","school_id":"609722","ald_15":"Jason C. Ervin","long":"-87.699896","grades":"9, 10, 11, 12","commarea":"EAST GARFIELD PARK","short_name":"MANLEY HS","ward_15":"28","address":"2935 W Polk St","geo_network":"5","lat":"41.870939","phone":"1(773)534-6900"},"geometry":{"type":"Point","coordinates":[-87.69989559006844,41.870938956115715]}},{"type":"Feature","properties":{"network":"ISP","grade_cat":"HS","zip":"60624","governance":"District","school_id":"609723","ald_15":"Jason C. Ervin","long":"-87.70805","grades":"9, 10, 11, 12","commarea":"EAST GARFIELD PARK","short_name":"MARSHALL HS","ward_15":"28","address":"3250 W Adams St","geo_network":"5","lat":"41.878444","phone":"1(773)534-6455"},"geometry":{"type":"Point","coordinates":[-87.70805007000293,41.878444085065304]}},{"type":"Feature","properties":{"network":"Network 2","grade_cat":"HS","zip":"60659","governance":"District","school_id":"609724","ald_15":"Patrick O'Connor","long":"-87.702496","grades":"9, 10, 11, 12","commarea":"WEST RIDGE","short_name":"MATHER HS","ward_15":"40","address":"5835 N Lincoln Ave","geo_network":"2","lat":"41.987589","phone":"1(773)534-2350"},"geometry":{"type":"Point","coordinates":[-87.7024963959148,41.987588681534916]}},{"type":"Feature","properties":{"network":"Network 10","grade_cat":"HS","zip":"60643","governance":"District","school_id":"609725","ald_15":"Matthew J. O'Shea","long":"-87.665658","grades":"7, 8, 9, 10, 11, 12","commarea":"MORGAN PARK","short_name":"MORGAN PARK HS","ward_15":"19","address":"1744 W Pryor Ave","geo_network":"10","lat":"41.692035","phone":"1(773)535-2550"},"geometry":{"type":"Point","coordinates":[-87.66565754496752,41.692035008508086]}},{"type":"Feature","properties":{"network":"ISP","grade_cat":"HS","zip":"60628","governance":"District","school_id":"609726","ald_15":"Anthony A. Beale","long":"-87.616353","grades":"9, 10, 11, 12","commarea":"ROSELAND","short_name":"BROOKS HS","ward_15":"9","address":"250 E 111th St","geo_network":"13","lat":"41.692763","phone":"1(773)535-9930"},"geometry":{"type":"Point","coordinates":[-87.61635260696305,41.69276252803521]}},{"type":"Feature","properties":{"network":"AUSL","grade_cat":"HS","zip":"60653","governance":"District","school_id":"609727","ald_15":"Patricia R. Dowell","long":"-87.619796","grades":"9, 10, 11, 12","commarea":"DOUGLAS","short_name":"PHILLIPS HS","ward_15":"3","address":"244 E Pershing Rd","geo_network":"9","lat":"41.82388","phone":"1(773)535-1603"},"geometry":{"type":"Point","coordinates":[-87.61979634587938,41.82387996779332]}},{"type":"Feature","properties":{"network":"Network 1","grade_cat":"HS","zip":"60625","governance":"District","school_id":"609728","ald_15":"Deborah Mell","long":"-87.714819","grades":"9, 10, 11, 12","commarea":"ALBANY PARK","short_name":"ROOSEVELT HS","ward_15":"33","address":"3436 W Wilson Ave","geo_network":"1","lat":"41.964828","phone":"1(773)534-5000"},"geometry":{"type":"Point","coordinates":[-87.71481861588198,41.96482788390732]}},{"type":"Feature","properties":{"network":"Network 1","grade_cat":"HS","zip":"60641","governance":"District","school_id":"609729","ald_15":"John Arena","long":"-87.735612","grades":"9, 10, 11, 12","commarea":"IRVING PARK","short_name":"SCHURZ HS","ward_15":"45","address":"3601 N Milwaukee Ave","geo_network":"1","lat":"41.946365","phone":"1(773)534-3420"},"geometry":{"type":"Point","coordinates":[-87.73561211025743,41.94636454254735]}},{"type":"Feature","properties":{"network":"Network 2","grade_cat":"HS","zip":"60660","governance":"District","school_id":"609730","ald_15":"Harry Osterman","long":"-87.667136","grades":"9, 10, 11, 12","commarea":"EDGEWATER","short_name":"SENN HS","ward_15":"48","address":"5900 N Glenwood Ave","geo_network":"2","lat":"41.989029","phone":"1(773)534-2365"},"geometry":{"type":"Point","coordinates":[-87.6671361896679,41.98902853819406]}},{"type":"Feature","properties":{"network":"Network 3","grade_cat":"HS","zip":"60634","governance":"District","school_id":"609732","ald_15":"Nicholas Sposato","long":"-87.783515","grades":"9, 10, 11, 12","commarea":"BELMONT CRAGIN","short_name":"STEINMETZ HS","ward_15":"36","address":"3030 N Mobile Ave","geo_network":"3","lat":"41.935634","phone":"1(773)534-3030"},"geometry":{"type":"Point","coordinates":[-87.78351523303839,41.93563358717894]}},{"type":"Feature","properties":{"network":"Network 2","grade_cat":"HS","zip":"60626","governance":"District","school_id":"609733","ald_15":"Joe A. Moore","long":"-87.669192","grades":"9, 10, 11, 12","commarea":"ROGERS PARK","short_name":"SULLIVAN HS","ward_15":"49","address":"6631 N Bosworth Ave","geo_network":"2","lat":"42.002688","phone":"1(773)534-2000"},"geometry":{"type":"Point","coordinates":[-87.6691921456409,42.00268755820679]}},{"type":"Feature","properties":{"network":"Network 1","grade_cat":"HS","zip":"60631","governance":"District","school_id":"609734","ald_15":"Mary O'Connor","long":"-87.791547","grades":"7, 8, 9, 10, 11, 12","commarea":"NORWOOD PARK","short_name":"TAFT HS","ward_15":"41","address":"6530 W Bryn Mawr Ave","geo_network":"1","lat":"41.982961","phone":"1(773)534-1000"},"geometry":{"type":"Point","coordinates":[-87.79154724889433,41.982960985797455]}},{"type":"Feature","properties":{"network":"Network 8","grade_cat":"HS","zip":"60609","governance":"District","school_id":"609735","ald_15":"James A. Balcer","long":"-87.642966","grades":"9, 10, 11, 12","commarea":"NEW CITY","short_name":"TILDEN HS","ward_15":"11","address":"4747 S Union Ave","geo_network":"8","lat":"41.80751","phone":"1(773)535-1625"},"geometry":{"type":"Point","coordinates":[-87.64296648369356,41.807510070907846]}},{"type":"Feature","properties":{"network":"Network 1","grade_cat":"HS","zip":"60625","governance":"District","school_id":"609737","ald_15":"Margaret Laurino","long":"-87.713386","grades":"9, 10, 11, 12","commarea":"NORTH PARK","short_name":"VON STEUBEN HS","ward_15":"39","address":"5039 N Kimball Ave","geo_network":"1","lat":"41.973185","phone":"1(773)534-5100"},"geometry":{"type":"Point","coordinates":[-87.71338625325822,41.97318504776281]}},{"type":"Feature","properties":{"network":"ISP","grade_cat":"HS","zip":"60614","governance":"District","school_id":"609738","ald_15":"Michele Smith","long":"-87.646009","grades":"9, 10, 11, 12","commarea":"LINCOLN PARK","short_name":"LINCOLN PARK HS","ward_15":"43","address":"2001 N Orchard St","geo_network":"4","lat":"41.918268","phone":"1(773)534-8130"},"geometry":{"type":"Point","coordinates":[-87.64600935977995,41.918268310846855]}},{"type":"Feature","properties":{"network":"Network 13","grade_cat":"HS","zip":"60617","governance":"District","school_id":"609739","ald_15":"John A. Pope","long":"-87.53757","grades":"9, 10, 11, 12","commarea":"EAST SIDE","short_name":"WASHINGTON HS","ward_15":"10","address":"3535 E 114th St","geo_network":"13","lat":"41.688137","phone":"1(773)535-5725"},"geometry":{"type":"Point","coordinates":[-87.53757030015832,41.688136935652565]}},{"type":"Feature","properties":{"network":"Network 6","grade_cat":"HS","zip":"60622","governance":"District","school_id":"609740","ald_15":"Proco (Joe) Moreno III","long":"-87.667483","grades":"9, 10, 11, 12","commarea":"WEST TOWN","short_name":"WELLS HS","ward_15":"1","address":"936 N Ashland Ave","geo_network":"6","lat":"41.898995","phone":"1(773)534-7010"},"geometry":{"type":"Point","coordinates":[-87.66748286871373,41.898994707393015]}},{"type":"Feature","properties":{"network":"Network 10","grade_cat":"HS","zip":"60629","governance":"District","school_id":"609741","ald_15":"Michael R. Zalewski","long":"-87.718014","grades":"9, 10, 11, 12","commarea":"WEST LAWN","short_name":"HUBBARD HS","ward_15":"23","address":"6200 S Hamlin Ave","geo_network":"10","lat":"41.780526","phone":"1(773)535-2200"},"geometry":{"type":"Point","coordinates":[-87.71801374341135,41.78052638668544]}},{"type":"Feature","properties":{"network":"Network 1","grade_cat":"HS","zip":"60659","governance":"District","school_id":"609744","ald_15":"Margaret Laurino","long":"-87.722386","grades":"9, 10, 11, 12","commarea":"NORTH PARK","short_name":"NORTHSIDE LEARNING HS","ward_15":"39","address":"3730 W Bryn Mawr Ave","geo_network":"1","lat":"41.982973","phone":"1(773)534-5180"},"geometry":{"type":"Point","coordinates":[-87.72238621571651,41.982972521350106]}},{"type":"Feature","properties":{"network":"Network 11","grade_cat":"HS","zip":"60636","governance":"District","school_id":"609745","ald_15":"Latasha R. Thomas","long":"-87.675947","grades":"11, 12","commarea":"WEST ENGLEWOOD","short_name":"SOUTHSIDE HS","ward_15":"17","address":"7342 S Hoyne Ave","geo_network":"11","lat":"41.759852","phone":"1(773)535-9100"},"geometry":{"type":"Point","coordinates":[-87.67594676755051,41.759852428041924]}},{"type":"Feature","properties":{"network":"Network 9","grade_cat":"HS","zip":"60615","governance":"District","school_id":"609746","ald_15":"William \"Will\" D. Burns","long":"-87.590421","grades":"7, 8, 9, 10, 11, 12","commarea":"KENWOOD","short_name":"KENWOOD HS","ward_15":"4","address":"5015 S Blackstone Ave","geo_network":"9","lat":"41.803772","phone":"1(773)535-1350"},"geometry":{"type":"Point","coordinates":[-87.59042088968275,41.80377211875098]}},{"type":"Feature","properties":{"network":"Options","grade_cat":"HS","zip":"60608","governance":"District","school_id":"609748","ald_15":"Michael D. Chandler","long":"-87.695261","grades":"9, 10, 11, 12","commarea":"SOUTH LAWNDALE","short_name":"YORK HS","ward_15":"24","address":"2700 S California Ave","geo_network":"7","lat":"41.842533","phone":"1(773)535-7021"},"geometry":{"type":"Point","coordinates":[-87.6952610154737,41.842533347975746]}},{"type":"Feature","properties":{"network":"Network 1","grade_cat":"HS","zip":"60625","governance":"District","school_id":"609749","ald_15":"Patrick O'Connor","long":"-87.708708","grades":"9, 10, 11, 12","commarea":"NORTH PARK","short_name":"NORTHSIDE PREP HS","ward_15":"40","address":"5501 N Kedzie Ave","geo_network":"1","lat":"41.981315","phone":"1(773)534-3954"},"geometry":{"type":"Point","coordinates":[-87.70870780029277,41.981315282164225]}},{"type":"Feature","properties":{"network":"Options","grade_cat":"HS","zip":"60608","governance":"District","school_id":"609750","ald_15":"Jason C. Ervin","long":"-87.668722","grades":"8, 9, 10, 11, 12","commarea":"NEAR WEST SIDE","short_name":"SIMPSON HS","ward_15":"28","address":"1321 S Paulina St","geo_network":"6","lat":"41.864365","phone":"1(773)534-7812"},"geometry":{"type":"Point","coordinates":[-87.66872222929887,41.8643654823773]}},{"type":"Feature","properties":{"network":"Network 9","grade_cat":"HS","zip":"60653","governance":"District","school_id":"609751","ald_15":"William \"Will\" D. Burns","long":"-87.603874","grades":"9, 10, 11, 12","commarea":"KENWOOD","short_name":"KING HS","ward_15":"4","address":"4445 S Drexel Blvd","geo_network":"9","lat":"41.813675","phone":"1(773)535-1180"},"geometry":{"type":"Point","coordinates":[-87.60387386150998,41.81367545210487]}},{"type":"Feature","properties":{"network":"Network 10","grade_cat":"HS","zip":"60655","governance":"District","school_id":"609753","ald_15":"Matthew J. O'Shea","long":"-87.71777","grades":"9, 10, 11, 12","commarea":"MOUNT GREENWOOD","short_name":"CHICAGO AGRICULTURE HS","ward_15":"19","address":"3857 W 111th St","geo_network":"10","lat":"41.691221","phone":"1(773)535-2500"},"geometry":{"type":"Point","coordinates":[-87.71776967259495,41.69122074145255]}},{"type":"Feature","properties":{"network":"SLA","grade_cat":"HS","zip":"60653","governance":"District","school_id":"609754","ald_15":"Patricia R. Dowell","long":"-87.619216","grades":"9, 10, 11, 12","commarea":"DOUGLAS","short_name":"CHICAGO MILITARY HS","ward_15":"3","address":"3519 S Giles Ave","geo_network":"9","lat":"41.830555","phone":"1(773)534-9750"},"geometry":{"type":"Point","coordinates":[-87.6192155427687,41.83055497712014]}},{"type":"Feature","properties":{"network":"ISP","grade_cat":"HS","zip":"60607","governance":"District","school_id":"609755","ald_15":"Walter Burnett, Jr.","long":"-87.664233","grades":"7, 8, 9, 10, 11, 12","commarea":"NEAR WEST SIDE","short_name":"YOUNG HS","ward_15":"27","address":"211 S Laflin St","geo_network":"6","lat":"41.878603","phone":"1(773)534-7500"},"geometry":{"type":"Point","coordinates":[-87.66423334280815,41.87860253271967]}},{"type":"Feature","properties":{"network":"Network 8","grade_cat":"HS","zip":"60632","governance":"District","school_id":"609756","ald_15":"Edward M. Burke","long":"-87.722042","grades":"9, 10, 11, 12","commarea":"ARCHER HEIGHTS","short_name":"CURIE HS","ward_15":"14","address":"4959 S Archer Ave","geo_network":"8","lat":"41.80306","phone":"1(773)535-2100"},"geometry":{"type":"Point","coordinates":[-87.72204165487233,41.80306020651821]}},{"type":"Feature","properties":{"network":"OS4","grade_cat":"HS","zip":"60622","governance":"District","school_id":"609759","ald_15":"Proco (Joe) Moreno III","long":"-87.686906","grades":"9, 10, 11, 12","commarea":"WEST TOWN","short_name":"CLEMENTE HS","ward_15":"1","address":"1147 N Western Ave","geo_network":"5","lat":"41.902626","phone":"1(773)534-4000"},"geometry":{"type":"Point","coordinates":[-87.68690614642159,41.902625791356584]}},{"type":"Feature","properties":{"network":"SLA","grade_cat":"HS","zip":"60627","governance":"District","school_id":"609760","ald_15":"Anthony A. Beale","long":"-87.59062","grades":"9, 10, 11, 12","commarea":"RIVERDALE","short_name":"CARVER MILITARY HS","ward_15":"9","address":"13100 S Doty Ave","geo_network":"13","lat":"41.65629","phone":"1(773)535-5250"},"geometry":{"type":"Point","coordinates":[-87.59062038495499,41.656289951013775]}},{"type":"Feature","properties":{"network":"Network 13","grade_cat":"HS","zip":"60628","governance":"District","school_id":"609761","ald_15":"Anthony A. Beale","long":"-87.601216","grades":"9, 10, 11, 12","commarea":"PULLMAN","short_name":"CORLISS HS","ward_15":"9","address":"821 E 103rd St","geo_network":"13","lat":"41.70666","phone":"1(773)535-5115"},"geometry":{"type":"Point","coordinates":[-87.60121587657939,41.70665961635234]}},{"type":"Feature","properties":{"network":"Network 13","grade_cat":"HS","zip":"60643","governance":"District","school_id":"609762","ald_15":"Carrie M. Austin","long":"-87.653749","grades":"9, 10, 11, 12","commarea":"WASHINGTON HEIGHTS","short_name":"JULIAN HS","ward_15":"34","address":"10330 S Elizabeth St","geo_network":"10","lat":"41.705859","phone":"1(773)535-5170"},"geometry":{"type":"Point","coordinates":[-87.6537492110773,41.70585893586945]}},{"type":"Feature","properties":{"network":"ISP","grade_cat":"HS","zip":"60608","governance":"District","school_id":"609764","ald_15":"Daniel S. Solis","long":"-87.663732","grades":"9, 10, 11, 12","commarea":"LOWER WEST SIDE","short_name":"JUAREZ HS","ward_15":"25","address":"2150 S Laflin St","geo_network":"7","lat":"41.852667","phone":"1(773)534-7030"},"geometry":{"type":"Point","coordinates":[-87.66373244658195,41.852666599349455]}},{"type":"Feature","properties":{"network":"Network 1","grade_cat":"HS","zip":"60641","governance":"District","school_id":"609766","ald_15":"Timothy M. Cullerton","long":"-87.764663","grades":"9, 10, 11, 12","commarea":"PORTAGE PARK","short_name":"VAUGHN HS","ward_15":"38","address":"4355 N Linder Ave","geo_network":"1","lat":"41.960364","phone":"1(773)534-3600"},"geometry":{"type":"Point","coordinates":[-87.76466317315523,41.960363796062815]}},{"type":"Feature","properties":{"network":"Network 11","grade_cat":"HS","zip":"60621","governance":"District","school_id":"609768","ald_15":"Willie B. Cochran","long":"-87.641244","grades":"9, 10, 11, 12","commarea":"ENGLEWOOD","short_name":"HOPE HS","ward_15":"20","address":"5515 S Lowe Ave","geo_network":"11","lat":"41.793553","phone":"1(773)535-3160"},"geometry":{"type":"Point","coordinates":[-87.64124410974966,41.79355346673504]}},{"type":"Feature","properties":{"network":"Network 6","grade_cat":"HS","zip":"60616","governance":"District","school_id":"609769","ald_15":"Patricia R. Dowell","long":"-87.625315","grades":"9, 10, 11, 12","commarea":"NEAR SOUTH SIDE","short_name":"GRAHAM HS","ward_15":"3","address":"2347 S Wabash Ave","geo_network":"6","lat":"41.849675","phone":"1(773)534-9257"},"geometry":{"type":"Point","coordinates":[-87.625314815783,41.84967541722844]}},{"type":"Feature","properties":{"network":"Network 13","grade_cat":"ES","zip":"60617","governance":"District","school_id":"609772","ald_15":"John A. Pope","long":"-87.532976","grades":"PK, K, 1, 2, 3, 4, 5, 6, 7, 8","commarea":"EAST SIDE","short_name":"ADDAMS","ward_15":"10","address":"10810 S Avenue H","geo_network":"13","lat":"41.698739","phone":"1(773)535-6210"},"geometry":{"type":"Point","coordinates":[-87.53297604186888,41.698738799501506]}},{"type":"Feature","properties":{"network":"Network 4","grade_cat":"ES","zip":"60657","governance":"District","school_id":"609773","ald_15":"Thomas Tunney","long":"-87.656229","grades":"PK, K, 1, 2, 3, 4, 5, 6, 7, 8","commarea":"LAKE VIEW","short_name":"AGASSIZ","ward_15":"44","address":"2851 N Seminary Ave","geo_network":"4","lat":"41.934126","phone":"1(773)534-5725"},"geometry":{"type":"Point","coordinates":[-87.65622866787353,41.93412629732926]}},{"type":"Feature","properties":{"network":"Network 6","grade_cat":"ES","zip":"60608","governance":"District","school_id":"609777","ald_15":"James A. Balcer","long":"-87.650653","grades":"PK, K, 1, 2, 3, 4, 5, 6, 7, 8","commarea":"BRIDGEPORT","short_name":"ARMOUR","ward_15":"11","address":"950 W 33rd Pl","geo_network":"6","lat":"41.833854","phone":"1(773)535-4530"},"geometry":{"type":"Point","coordinates":[-87.6506531559409,41.83385390912795]}},{"type":"Feature","properties":{"network":"Network 2","grade_cat":"ES","zip":"60645","governance":"District","school_id":"609779","ald_15":"Debra L. Silverstein","long":"-87.684442","grades":"PK, K, 1, 2, 3, 4, 5, 6, 7, 8","commarea":"WEST RIDGE","short_name":"ARMSTRONG G","ward_15":"50","address":"2110 W Greenleaf Ave","geo_network":"2","lat":"42.01015","phone":"1(773)534-2150"},"geometry":{"type":"Point","coordinates":[-87.68444182723555,42.01014998355085]}},{"type":"Feature","properties":{"network":"SLA","grade_cat":"HS","zip":"60647","governance":"District","school_id":"609780","ald_15":"Roberto Maldonado","long":"-87.721742","grades":"7, 8, 9, 10, 11, 12","commarea":"LOGAN SQUARE","short_name":"MARINE LEADERSHIP AT AMES HS","ward_15":"26","address":"1920 N Hamlin Ave","geo_network":"4","lat":"41.916045","phone":"1(773)534-4970"},"geometry":{"type":"Point","coordinates":[-87.72174231737525,41.91604463278367]}},{"type":"Feature","properties":{"network":"Network 4","grade_cat":"ES","zip":"60618","governance":"District","school_id":"609782","ald_15":"Ameya Pawar","long":"-87.681041","grades":"PK, K, 1, 2, 3, 4, 5, 6, 7, 8","commarea":"NORTH CENTER","short_name":"AUDUBON","ward_15":"47","address":"3500 N Hoyne Ave","geo_network":"4","lat":"41.945062","phone":"1(773)534-5470"},"geometry":{"type":"Point","coordinates":[-87.68104105326863,41.94506222420041]}},{"type":"Feature","properties":{"network":"Options","grade_cat":"HS","zip":"60612","governance":"District","school_id":"609783","ald_15":"Walter Burnett, Jr.","long":"-87.680418","grades":"6, 7, 8, 9, 10, 11, 12","commarea":"NEAR WEST SIDE","short_name":"JEFFERSON HS","ward_15":"27","address":"1100 S Hamilton Ave","geo_network":"6","lat":"41.867832","phone":"1(312)433-7110"},"geometry":{"type":"Point","coordinates":[-87.6804175551467,41.86783228494752]}},{"type":"Feature","properties":{"network":"Network 12","grade_cat":"ES","zip":"60619","governance":"District","school_id":"609786","ald_15":"Michelle A. Harris","long":"-87.591654","grades":"PK, K, 1, 2, 3, 4, 5, 6, 7, 8","commarea":"AVALON PARK","short_name":"AVALON PARK","ward_15":"8","address":"8045 S Kenwood Ave","geo_network":"12","lat":"41.748247","phone":"1(773)535-6615"},"geometry":{"type":"Point","coordinates":[-87.59165381067288,41.74824699361749]}},{"type":"Feature","properties":{"network":"Network 10","grade_cat":"ES","zip":"60643","governance":"District","school_id":"609788","ald_15":"Matthew J. O'Shea","long":"-87.658074","grades":"PK, K, 1, 2, 3, 4, 5, 6, 7, 8","commarea":"BEVERLY","short_name":"BARNARD","ward_15":"19","address":"10354 S Charles St","geo_network":"10","lat":"41.705131","phone":"1(773)535-2625"},"geometry":{"type":"Point","coordinates":[-87.65807422422662,41.705131010946644]}},{"type":"Feature","properties":{"network":"Network 4","grade_cat":"ES","zip":"60641","governance":"District","school_id":"609789","ald_15":"Ray Suarez","long":"-87.739388","grades":"PK, K, 1, 2, 3, 4, 5, 6","commarea":"HERMOSA","short_name":"BARRY","ward_15":"31","address":"2828 N Kilbourn Ave","geo_network":"4","lat":"41.932511","phone":"1(773)534-3455"},"geometry":{"type":"Point","coordinates":[-87.73938835132714,41.93251058271708]}},{"type":"Feature","properties":{"network":"Network 11","grade_cat":"ES","zip":"60620","governance":"District","school_id":"609790","ald_15":"Latasha R. Thomas","long":"-87.670927","grades":"PK, K, 1, 2, 3, 4, 5, 6, 7, 8","commarea":"AUBURN GRESHAM","short_name":"BARTON","ward_15":"17","address":"7650 S Wolcott Ave","geo_network":"11","lat":"41.754194","phone":"1(773)535-3260"},"geometry":{"type":"Point","coordinates":[-87.6709271289381,41.75419384970478]}},{"type":"Feature","properties":{"network":"Network 11","grade_cat":"ES","zip":"60621","governance":"District","school_id":"609791","ald_15":"JoAnn Thompson","long":"-87.653532","grades":"PK, K, 1, 2, 3, 4, 5, 6, 7, 8","commarea":"ENGLEWOOD","short_name":"BASS","ward_15":"16","address":"1140 W 66th St","geo_network":"11","lat":"41.774246","phone":"1(773)535-3275"},"geometry":{"type":"Point","coordinates":[-87.65353241974717,41.77424645010303]}},{"type":"Feature","properties":{"network":"Network 1","grade_cat":"ES","zip":"60618","governance":"District","school_id":"609792","ald_15":"Deborah Mell","long":"-87.702151","grades":"PK, K, 1, 2, 3, 4, 5, 6, 7, 8","commarea":"IRVING PARK","short_name":"BATEMAN","ward_15":"33","address":"4220 N Richmond St","geo_network":"1","lat":"41.95822","phone":"1(773)534-5055"},"geometry":{"type":"Point","coordinates":[-87.7021509622272,41.95821983852925]}},{"type":"Feature","properties":{"network":"Network 11","grade_cat":"ES","zip":"60621","governance":"District","school_id":"609793","ald_15":"JoAnn Thompson","long":"-87.647453","grades":"PK, K, 1, 2, 3, 4, 5, 6, 7, 8","commarea":"ENGLEWOOD","short_name":"NICHOLSON","ward_15":"16","address":"6006 S Peoria St","geo_network":"11","lat":"41.784942","phone":"1(773)535-3285"},"geometry":{"type":"Point","coordinates":[-87.64745284219362,41.78494237944745]}},{"type":"Feature","properties":{"network":"Network 1","grade_cat":"ES","zip":"60625","governance":"District","school_id":"609794","ald_15":"Deborah Mell","long":"-87.709304","grades":"K, 1, 2, 3, 4, 5, 6, 7, 8","commarea":"ALBANY PARK","short_name":"EDISON","ward_15":"33","address":"4929 N Sawyer Ave","geo_network":"1","lat":"41.971506","phone":"1(773)534-0540"},"geometry":{"type":"Point","coordinates":[-87.70930366602214,41.971506096123875]}},{"type":"Feature","properties":{"network":"Network 3","grade_cat":"ES","zip":"60644","governance":"District","school_id":"609795","ald_15":"Deborah L. Graham","long":"-87.770418","grades":"PK, K, 1, 2, 3, 4, 5, 6, 7, 8","commarea":"AUSTIN","short_name":"CLARK ES","ward_15":"29","address":"1045 S Monitor Ave","geo_network":"3","lat":"41.867813","phone":"1(773)534-6225"},"geometry":{"type":"Point","coordinates":[-87.77041752682254,41.86781256765913]}},{"type":"Feature","properties":{"network":"Network 1","grade_cat":"ES","zip":"60630","governance":"District","school_id":"609796","ald_15":"John Arena","long":"-87.757565","grades":"PK, K, 1, 2, 3, 4, 5, 6, 7, 8","commarea":"JEFFERSON PARK","short_name":"BEAUBIEN","ward_15":"45","address":"5025 N Laramie Ave","geo_network":"1","lat":"41.972394","phone":"1(773)534-3500"},"geometry":{"type":"Point","coordinates":[-87.75756503952755,41.972393944348255]}},{"type":"Feature","properties":{"network":"Network 5","grade_cat":"ES","zip":"60612","governance":"District","school_id":"609797","ald_15":"Walter Burnett, Jr.","long":"-87.705855","grades":"PK, K, 1, 2, 3, 4, 5, 6, 7, 8","commarea":"EAST GARFIELD PARK","short_name":"BEIDLER","ward_15":"27","address":"3151 W Walnut St","geo_network":"5","lat":"41.885321","phone":"1(773)534-6811"},"geometry":{"type":"Point","coordinates":[-87.70585481254497,41.885321039653036]}},{"type":"Feature","properties":{"network":"Network 1","grade_cat":"ES","zip":"60641","governance":"District","school_id":"609798","ald_15":"Margaret Laurino","long":"-87.73402","grades":"PK, K, 1, 2, 3, 4, 5, 6, 7, 8","commarea":"IRVING PARK","short_name":"BELDING","ward_15":"39","address":"4257 N Tripp Ave","geo_network":"1","lat":"41.958938","phone":"1(773)534-3590"},"geometry":{"type":"Point","coordinates":[-87.73401972914144,41.95893849334404]}},