{
  "type": "FeatureCollection",
  "features": [
    {"type":"Feature","properties":{"school_nm":"BURNHAM","x":"-87.5776161044","grade_cat":"ES","y":"41.7205293752","sch_addr":"1903 E 96TH ST, 60617","school_id":"609821","grades":"K, 1, 2, 3, 4, 5, 6, 7, 8","sch_type":"District, non-alternative"},"geometry":{"type":"Point","coordinates":[-87.57761610478451,41.720529374084634]}},{"type":"Feature","properties":{"school_nm":"BURNSIDE","x":"-87.6074353177","grade_cat":"ES","y":"41.7284806359","sch_addr":"650 E 91ST PL, 60619","school_id":"609827","grades":"PK, K, 1, 2, 3, 4, 5, 6, 7, 8","sch_type":"District, non-alternative"},"geometry":{"type":"Point","coordinates":[-87.60743531771375,41.72848063518624]}},{"type":"Feature","properties":{"school_nm":"BURR","x":"-87.6686606004","grade_cat":"ES","y":"41.9123579116","sch_addr":"1621 W WABANSIA AVE, 60622","school_id":"609828","grades":"PK, K, 1, 2, 3, 4, 5, 6, 7, 8","sch_type":"District, non-alternative"},"geometry":{"type":"Point","coordinates":[-87.66866060012036,41.91235791085212]}},{"type":"Feature","properties":{"school_nm":"BURROUGHS","x":"-87.6924566243","grade_cat":"ES","y":"41.8288679054","sch_addr":"3542 S WASHTENAW AVE, 60632","school_id":"609829","grades":"PK, K, 1, 2, 3, 4, 5, 6, 7, 8","sch_type":"District, non-alternative"},"geometry":{"type":"Point","coordinates":[-87.69245662443122,41.828867904695734]}},{"type":"Feature","properties":{"school_nm":"BYRNE","x":"-87.7915444827","grade_cat":"ES","y":"41.7950309614","sch_addr":"5329 S OAK PARK AVE, 60638","school_id":"609832","grades":"K, 1, 2, 3, 4, 5, 6, 7, 8","sch_type":"District, non-alternative"},"geometry":{"type":"Point","coordinates":[-87.79154448272853,41.79503096083551]}},{"type":"Feature","properties":{"school_nm":"CHICAGO TECH ACADEMY","x":"-87.6590948024","grade_cat":"HS","y":"41.8633014117","sch_addr":"1301 W 14TH ST, 60608","school_id":"400091","grades":"9, 10, 11","sch_type":"Contract"},"geometry":{"type":"Point","coordinates":[-87.65909480289805,41.863301410924144]}},{"type":"Feature","properties":{"school_nm":"CALDWELL","x":"-87.5807290248","grade_cat":"ES","y":"41.7392263517","sch_addr":"8546 S CREGIER AVE, 60617","school_id":"609833","grades":"PK, K, 1, 2, 3, 4, 5, 6, 7, 8","sch_type":"District, non-alternative"},"geometry":{"type":"Point","coordinates":[-87.58072902531072,41.739226350867675]}},{"type":"Feature","properties":{"school_nm":"CALHOUN","x":"-87.6975585307","grade_cat":"ES","y":"41.8782485299","sch_addr":"2833 W ADAMS ST, 60612","school_id":"610243","grades":"PK, K, 1, 2, 3, 4, 5, 6, 7, 8","sch_type":"District, non-alternative"},"geometry":{"type":"Point","coordinates":[-87.6975585306753,41.878248528962764]}},{"type":"Feature","properties":{"school_nm":"CALMECA","x":"-87.7116536403","grade_cat":"ES","y":"41.8243773235","sch_addr":"3456 W 38TH ST, 60632","school_id":"610353","grades":"PK, K, 1, 2, 3, 4, 5, 6, 7, 8","sch_type":"District, non-alternative"},"geometry":{"type":"Point","coordinates":[-87.71165364062117,41.82437732271189]}},{"type":"Feature","properties":{"school_nm":"CAMERON","x":"-87.7179266337","grade_cat":"ES","y":"41.9037921237","sch_addr":"1234 N MONTICELLO AVE, 60651","school_id":"609835","grades":"PK, K, 1, 2, 3, 4, 5, 6, 7, 8","sch_type":"District, non-alternative"},"geometry":{"type":"Point","coordinates":[-87.71792663394626,41.90379212251171]}},{"type":"Feature","properties":{"school_nm":"CAMRAS","x":"-87.7701272578","grade_cat":"ES","y":"41.934930624","sch_addr":"3000 N MANGO AVE, 60634","school_id":"610539","grades":"PK, K, 1, 2, 3, 4, 5, 6, 7, 8","sch_type":"District, non-alternative"},"geometry":{"type":"Point","coordinates":[-87.77012725796622,41.934930622983885]}},{"type":"Feature","properties":{"school_nm":"CANTER","x":"-87.5904308311","grade_cat":"MS","y":"41.8043079681","sch_addr":"4959 S BLACKSTONE AVE, 60615","school_id":"610018","grades":"7, 8","sch_type":"District, non-alternative"},"geometry":{"type":"Point","coordinates":[-87.59043083100246,41.80430796743642]}},{"type":"Feature","properties":{"school_nm":"CANTY","x":"-87.8292957028","grade_cat":"ES","y":"41.9480070294","sch_addr":"3740 N PANAMA AVE, 60634","school_id":"609836","grades":"PK, K, 1, 2, 3, 4, 5, 6, 7, 8","sch_type":"District, non-alternative"},"geometry":{"type":"Point","coordinates":[-87.8292957022145,41.94800702817947]}},{"type":"Feature","properties":{"school_nm":"CARDENAS","x":"-87.7160174042","grade_cat":"ES","y":"41.8484877747","sch_addr":"2345 S MILLARD AVE, 60623","school_id":"610024","grades":"PK, K, 1, 2, 3","sch_type":"District, non-alternative"},"geometry":{"type":"Point","coordinates":[-87.7160174036969,41.84848777346416]}},{"type":"Feature","properties":{"school_nm":"CARNEGIE","x":"-87.5907950046","grade_cat":"ES","y":"41.7833683199","sch_addr":"1414 E 61ST PL, 60637","school_id":"609837","grades":"PK, K, 1, 2, 3, 4, 5, 6, 7, 8","sch_type":"District, non-alternative"},"geometry":{"type":"Point","coordinates":[-87.59079500448897,41.78336831906858]}},{"type":"Feature","properties":{"school_nm":"CARROLL","x":"-87.696012074","grade_cat":"ES","y":"41.7425166231","sch_addr":"2929 W 83RD ST, 60652","school_id":"609839","grades":"PK, K, 1, 2, 3, 4, 5, 6, 7, 8","sch_type":"District, non-alternative"},"geometry":{"type":"Point","coordinates":[-87.69601207396762,41.74251662216508]}},{"type":"Feature","properties":{"school_nm":"CARSON","x":"-87.6877995433","grade_cat":"ES","y":"41.7932721417","sch_addr":"5516 S MAPLEWOOD AVE, 60629","school_id":"609842","grades":"PK, K, 1, 2, 3, 4, 5, 6, 7, 8","sch_type":"District, non-alternative"},"geometry":{"type":"Point","coordinates":[-87.68779954324576,41.79327214067223]}},{"type":"Feature","properties":{"school_nm":"ACE TECHNICAL CHARTER HS","x":"-87.6258490335","grade_cat":"HS","y":"41.7961215078","sch_addr":"5410 S STATE ST, 60609","school_id":"400010","grades":"9, 10, 11, 12","sch_type":"Charter"},"geometry":{"type":"Point","coordinates":[-87.62584903297876,41.7961215068429]}},{"type":"Feature","properties":{"school_nm":"ADDAMS","x":"-87.5329760367","grade_cat":"ES","y":"41.6987387991","sch_addr":"10810 S AVENUE H, 60617","school_id":"609772","grades":"PK, K, 1, 2, 3, 4, 5, 6, 7, 8","sch_type":"District, non-alternative"},"geometry":{"type":"Point","coordinates":[-87.532976037024,41.6987387981394]}},{"type":"Feature","properties":{"school_nm":"AGASSIZ","x":"-87.6562286649","grade_cat":"ES","y":"41.9341262991","sch_addr":"2851 N SEMINARY AVE, 60657","school_id":"609773","grades":"PK, K, 1, 2, 3, 4, 5, 6, 7, 8","sch_type":"District, non-alternative"},"geometry":{"type":"Point","coordinates":[-87.65622866502646,41.934126298380114]}},{"type":"Feature","properties":{"school_nm":"AIR FORCE HS","x":"-87.6327569777","grade_cat":"HS","y":"41.8281453211","sch_addr":"3630 S WELLS ST, 60609","school_id":"610513","grades":"9, 10, 11","sch_type":"District, non-alternative"},"geometry":{"type":"Point","coordinates":[-87.6327569771275,41.828145320212286]}},{"type":"Feature","properties":{"school_nm":"ALBANY PARK","x":"-87.7096639791","grade_cat":"MS","y":"41.9711414891","sch_addr":"4929 N SAWYER AVE, 60625","school_id":"610212","grades":"7, 8","sch_type":"District, non-alternative"},"geometry":{"type":"Point","coordinates":[-87.70966397934643,41.971141487822294]}},{"type":"Feature","properties":{"school_nm":"ALCOTT ES","x":"-87.646376397","grade_cat":"ES","y":"41.9298505504","sch_addr":"2625 N ORCHARD ST, 60614","school_id":"609774","grades":"PK, K, 1, 2, 3, 4, 5, 6, 7, 8","sch_type":"District, non-alternative"},"geometry":{"type":"Point","coordinates":[-87.64637639685175,41.92985054961706]}},{"type":"Feature","properties":{"school_nm":"ALCOTT HS","x":"-87.6805620113","grade_cat":"HS","y":"41.9357945575","sch_addr":"2957 N HOYNE AVE, 60618","school_id":"610524","grades":"9, 10, 11","sch_type":"District, non-alternative"},"geometry":{"type":"Point","coordinates":[-87.68056201136822,41.93579455648328]}},{"type":"Feature","properties":{"school_nm":"ALDRIDGE","x":"-87.6064738441","grade_cat":"ES","y":"41.657404966","sch_addr":"630 E 131ST ST, 60827","school_id":"609848","grades":"PK, K, 1, 2, 3, 4, 5, 6, 7, 8","sch_type":"District, non-alternative"},"geometry":{"type":"Point","coordinates":[-87.60647384456267,41.657404965104774]}},{"type":"Feature","properties":{"school_nm":"ALTGELD","x":"-87.6582048314","grade_cat":"ES","y":"41.7650758924","sch_addr":"1340 W 71ST ST, 60636","school_id":"609775","grades":"PK, K, 1, 2, 3, 4, 5, 6, 7, 8","sch_type":"District, non-alternative"},"geometry":{"type":"Point","coordinates":[-87.65820483155116,41.7650758911878]}},{"type":"Feature","properties":{"school_nm":"AMANDLA CHTR HS","x":"-87.6352615178","grade_cat":"HS","y":"41.7708045473","sch_addr":"6800 S STEWART AVE, 60621","school_id":"400012","grades":"5, 6, 7, 8","sch_type":"Charter"},"geometry":{"type":"Point","coordinates":[-87.63526151829694,41.77080454666991]}},{"type":"Feature","properties":{"school_nm":"AMES","x":"-87.7217423154","grade_cat":"MS","y":"41.9160446329","sch_addr":"1920 N HAMLIN AVE, 60647","school_id":"609780","grades":"7, 8","sch_type":"District, non-alternative"},"geometry":{"type":"Point","coordinates":[-87.72174231558469,41.91604463215879]}},{"type":"Feature","properties":{"school_nm":"AMUNDSEN HS","x":"-87.67948421","grade_cat":"HS","y":"41.9750672575","sch_addr":"5110 N DAMEN AVE, 60625","school_id":"609695","grades":"9, 10, 11, 12","sch_type":"District, non-alternative"},"geometry":{"type":"Point","coordinates":[-87.6794842101135,41.97506725672869]}},{"type":"Feature","properties":{"school_nm":"ARIEL","x":"-87.5985193338","grade_cat":"ES","y":"41.8113616779","sch_addr":"1119 E 46TH ST, 60653","school_id":"609951","grades":"PK, K, 1, 2, 3, 4, 5, 6, 7, 8","sch_type":"District, non-alternative"},"geometry":{"type":"Point","coordinates":[-87.59851933416013,41.81136167679246]}},{"type":"Feature","properties":{"school_nm":"ARMOUR","x":"-87.6506531553","grade_cat":"ES","y":"41.8338539083","sch_addr":"950 W 33RD PL, 60608","school_id":"609777","grades":"PK, K, 1, 2, 3, 4, 5, 6, 7, 8","sch_type":"District, non-alternative"},"geometry":{"type":"Point","coordinates":[-87.65065315531322,41.833853907020945]}},{"type":"Feature","properties":{"school_nm":"ARMSTRONG, G","x":"-87.6844418214","grade_cat":"ES","y":"42.0101499872","sch_addr":"2110 W GREENLEAF AVE, 60645","school_id":"609779","grades":"PK, K, 1, 2, 3, 4, 5, 6, 7, 8","sch_type":"District, non-alternative"},"geometry":{"type":"Point","coordinates":[-87.6844418212974,42.01014998640255]}},{"type":"Feature","properties":{"school_nm":"ARMSTRONG, L","x":"-87.7592350668","grade_cat":"ES","y":"41.8738095904","sch_addr":"5345 W CONGRESS PKWY, 60644","school_id":"610156","grades":"3, 4, 5, 6","sch_type":"District, non-alternative"},"geometry":{"type":"Point","coordinates":[-87.75923506732659,41.87380958945669]}},{"type":"Feature","properties":{"school_nm":"ASHBURN","x":"-87.7096096767","grade_cat":"ES","y":"41.7423505672","sch_addr":"8300 S ST LOUIS AVE, 60652","school_id":"610287","grades":"PK, K, 1, 2, 3, 4, 5, 6, 7, 8","sch_type":"District, non-alternative"},"geometry":{"type":"Point","coordinates":[-87.7096096772409,41.74235056625388]}},{"type":"Feature","properties":{"school_nm":"ASHE","x":"-87.6011744068","grade_cat":"ES","y":"41.7401837892","sch_addr":"8505 S INGLESIDE AVE, 60619","school_id":"610268","grades":"K, 1, 2, 3, 4, 5, 6, 7, 8","sch_type":"District, non-alternative"},"geometry":{"type":"Point","coordinates":[-87.60117440686278,41.74018378844838]}},{"type":"Feature","properties":{"school_nm":"ASPIRA CHTR - EARLY COLLEGE HS","x":"-87.7268365716","grade_cat":"HS","y":"41.9373542763","sch_addr":"3986 W BARRY AVE, 60618","school_id":"400013","grades":"9, 10, 11, 12","sch_type":"Charter"},"geometry":{"type":"Point","coordinates":[-87.72683657164177,41.9373542755102]}},{"type":"Feature","properties":{"school_nm":"ASPIRA CHTR - HAUGAN","x":"-87.7218246649","grade_cat":"MS","y":"41.9664056698","sch_addr":"3729 W LELAND AVE, 60625","school_id":"400017","grades":"6, 7, 8","sch_type":"Charter"},"geometry":{"type":"Point","coordinates":[-87.72182466518926,41.96640566898425]}},{"type":"Feature","properties":{"school_nm":"ASPIRA CHTR - RAMIREZ HS","x":"-87.6969413799","grade_cat":"HS","y":"41.9125054874","sch_addr":"1711 N CALIFORNIA AVE, 60647","school_id":"400015","grades":"9, 10, 11, 12","sch_type":"Charter"},"geometry":{"type":"Point","coordinates":[-87.69694138011704,41.912505486655114]}},{"type":"Feature","properties":{"school_nm":"ATTUCKS","x":"-87.625783383","grade_cat":"ES","y":"41.8021126046","sch_addr":"5055 S STATE ST, 60609","school_id":"609781","grades":"PK, K, 1, 2, 3, 4, 5, 6, 7, 8","sch_type":"District, non-alternative"},"geometry":{"type":"Point","coordinates":[-87.62578338323173,41.80211260393532]}},{"type":"Feature","properties":{"school_nm":"AUDUBON","x":"-87.6810410494","grade_cat":"ES","y":"41.9450622277","sch_addr":"3500 N HOYNE AVE, 60618","school_id":"609782","grades":"PK, K, 1, 2, 3, 4, 5, 6, 7, 8","sch_type":"District, non-alternative"},"geometry":{"type":"Point","coordinates":[-87.68104104949263,41.945062226984504]}},{"type":"Feature","properties":{"school_nm":"AUSTIN BUS & ENTRP HS","x":"-87.7632488739","grade_cat":"HS","y":"41.8852132548","sch_addr":"231 N PINE AVE, 60644","school_id":"400018","grades":"9, 10, 11, 12","sch_type":"District, non-alternative"},"geometry":{"type":"Point","coordinates":[-87.76324887427936,41.88521325402359]}},{"type":"Feature","properties":{"school_nm":"AUSTIN POLY HS","x":"-87.7632488739","grade_cat":"HS","y":"41.8852132548","sch_addr":"231 N PINE AVE, 60644","school_id":"610501","grades":"9, 10, 11, 12","sch_type":"District, non-alternative"},"geometry":{"type":"Point","coordinates":[-87.76324887427936,41.88521325402359]}},{"type":"Feature","properties":{"school_nm":"AVALON PARK","x":"-87.5916538071","grade_cat":"ES","y":"41.7482469912","sch_addr":"8045 S KENWOOD AVE, 60619","school_id":"609786","grades":"PK, K, 1, 2, 3, 4, 5, 6, 7, 8","sch_type":"District, non-alternative"},"geometry":{"type":"Point","coordinates":[-87.5916538072862,41.74824699034772]}},{"type":"Feature","properties":{"school_nm":"AZUELA","x":"-87.7399202348","grade_cat":"ES","y":"41.7710790704","sch_addr":"4707 W MARQUETTE RD, 60629","school_id":"610544","grades":"PK, K, 1, 2, 3, 4, 5, 6, 7, 8","sch_type":"District, non-alternative"},"geometry":{"type":"Point","coordinates":[-87.7399202350127,41.771079069238915]}},{"type":"Feature","properties":{"school_nm":"BANNEKER","x":"-87.6372773421","grade_cat":"ES","y":"41.7727274971","sch_addr":"6656 S NORMAL BLVD, 60621","school_id":"610265","grades":"PK, K, 1, 2, 3, 4, 5, 6, 7, 8","sch_type":"District, non-alternative"},"geometry":{"type":"Point","coordinates":[-87.63727734242272,41.77272749594101]}},{"type":"Feature","properties":{"school_nm":"BARNARD","x":"-87.6580742229","grade_cat":"ES","y":"41.7051310057","sch_addr":"10354 S CHARLES ST, 60643","school_id":"609788","grades":"PK, K, 1, 2, 3, 4, 5, 6, 7, 8","sch_type":"District, non-alternative"},"geometry":{"type":"Point","coordinates":[-87.65807422292714,41.70513100499979]}},{"type":"Feature","properties":{"school_nm":"BARRY","x":"-87.7393883571","grade_cat":"ES","y":"41.9325105858","sch_addr":"2828 N KILBOURN AVE, 60641","school_id":"609789","grades":"PK, K, 1, 2, 3, 4, 5, 6","sch_type":"District, non-alternative"},"geometry":{"type":"Point","coordinates":[-87.73938835704465,41.93251058461602]}},{"type":"Feature","properties":{"school_nm":"BARTON","x":"-87.6709271247","grade_cat":"ES","y":"41.7541938471","sch_addr":"7650 S WOLCOTT AVE, 60620","school_id":"609790","grades":"PK, K, 1, 2, 3, 4, 5, 6, 7, 8","sch_type":"District, non-alternative"},"geometry":{"type":"Point","coordinates":[-87.67092712515536,41.75419384616411]}},{"type":"Feature","properties":{"school_nm":"BASS","x":"-87.6535324162","grade_cat":"ES","y":"41.7742464482","sch_addr":"1140 W 66TH ST, 60621","school_id":"609791","grades":"PK, K, 1, 2, 3, 4, 5, 6, 7, 8","sch_type":"District, non-alternative"},"geometry":{"type":"Point","coordinates":[-87.65353241661735,41.774246447322014]}},{"type":"Feature","properties":{"school_nm":"BATEMAN","x":"-87.702150957","grade_cat":"ES","y":"41.9582198405","sch_addr":"4220 N RICHMOND ST, 60618","school_id":"609792","grades":"PK, K, 1, 2, 3, 4, 5, 6, 7, 8","sch_type":"District, non-alternative"},"geometry":{"type":"Point","coordinates":[-87.70215095695657,41.95821983975402]}},{"type":"Feature","properties":{"school_nm":"BEARD","x":"-87.7896303313","grade_cat":"ES","y":"41.970124884","sch_addr":"6445 W STRONG ST, 60656","school_id":"610083","grades":"PK, K, 1, 2, 3","sch_type":"District, Special Ed."},"geometry":{"type":"Point","coordinates":[-87.78963033156545,41.97012488323366]}},{"type":"Feature","properties":{"school_nm":"BEASLEY","x":"-87.6256915758","grade_cat":"ES","y":"41.7984649592","sch_addr":"5255 S STATE ST, 60609","school_id":"610246","grades":"PK, K, 1, 2, 3, 4, 5, 6, 7, 8","sch_type":"District, non-alternative"},"geometry":{"type":"Point","coordinates":[-87.62569157611483,41.79846495836002]}},{"type":"Feature","properties":{"school_nm":"BEAUBIEN","x":"-87.7575650424","grade_cat":"ES","y":"41.9723939462","sch_addr":"5025 N LARAMIE AVE, 60630","school_id":"609796","grades":"PK, K, 1, 2, 3, 4, 5, 6, 7, 8","sch_type":"District, non-alternative"},"geometry":{"type":"Point","coordinates":[-87.75756504279337,41.972393945587505]}},{"type":"Feature","properties":{"school_nm":"BEETHOVEN","x":"-87.627136804","grade_cat":"ES","y":"41.809134754","sch_addr":"25 W 47TH ST, 60609","school_id":"610237","grades":"PK, K, 1, 2, 3, 4, 5, 6, 7, 8","sch_type":"District, non-alternative"},"geometry":{"type":"Point","coordinates":[-87.6271368042906,41.80913475325808]}},{"type":"Feature","properties":{"school_nm":"BEIDLER","x":"-87.7058548096","grade_cat":"ES","y":"41.8853210415","sch_addr":"3151 W WALNUT ST, 60612","school_id":"609797","grades":"PK, K, 1, 2, 3, 4, 5, 6, 7, 8","sch_type":"District, non-alternative"},"geometry":{"type":"Point","coordinates":[-87.70585480958898,41.88532104036188]}},{"type":"Feature","properties":{"school_nm":"BELDING","x":"-87.734019732","grade_cat":"ES","y":"41.958938498","sch_addr":"4257 N TRIPP AVE, 60641","school_id":"609798","grades":"PK, K, 1, 2, 3, 4, 5, 6, 7, 8","sch_type":"District, non-alternative"},"geometry":{"type":"Point","coordinates":[-87.73401973205058,41.95893849724776]}},{"type":"Feature","properties":{"school_nm":"BELL","x":"-87.6860182416","grade_cat":"ES","y":"41.9495298029","sch_addr":"3730 N OAKLEY AVE, 60618","school_id":"609799","grades":"K, 1, 2, 3, 4, 5, 6, 7, 8","sch_type":"District, non-alternative"},"geometry":{"type":"Point","coordinates":[-87.68601824188592,41.94952980182081]}},{"type":"Feature","properties":{"school_nm":"BELMONT-CRAGIN","x":"-87.769807776","grade_cat":"ES","y":"41.9256302762","sch_addr":"2456 N MANGO AVE, 60639","school_id":"609922","grades":"PK, K, 1, 2, 3, 4, 5, 6, 7, 8","sch_type":"District, non-alternative"},"geometry":{"type":"Point","coordinates":[-87.76980777628152,41.92563027510522]}},{"type":"Feature","properties":{"school_nm":"BENNETT","x":"-87.6173904528","grade_cat":"ES","y":"41.7104349484","sch_addr":"10115 S PRAIRIE AVE, 60628","school_id":"609800","grades":"PK, K, 1, 2, 3, 4, 5, 6, 7, 8","sch_type":"District, non-alternative"},"geometry":{"type":"Point","coordinates":[-87.6173904533082,41.7104349475258]}},{"type":"Feature","properties":{"school_nm":"BEST PRACTICE HS","x":"-87.6781952542","grade_cat":"HS","y":"41.8788088107","sch_addr":"2040 W ADAMS ST, 60612","school_id":"610370","grades":"12","sch_type":"High School"},"geometry":{"type":"Point","coordinates":[-87.67819525480176,41.87880880971917]}},{"type":"Feature","properties":{"school_nm":"BETHUNE","x":"-87.7021629022","grade_cat":"ES","y":"41.8701677214","sch_addr":"3030 W ARTHINGTON ST, 60612","school_id":"610365","grades":"PK, K, 1, 2, 3, 4, 5, 6, 7, 8","sch_type":"District, non-alternative"},"geometry":{"type":"Point","coordinates":[-87.70216290193521,41.87016772073667]}},{"type":"Feature","properties":{"school_nm":"BLACK","x":"-87.5766429477","grade_cat":"ES","y":"41.7296923617","sch_addr":"9101 S EUCLID AVE, 60617","school_id":"610350","grades":"K, 1, 2, 3, 4, 5, 6, 7, 8","sch_type":"District, non-alternative"},"geometry":{"type":"Point","coordinates":[-87.57664294754636,41.72969236079044]}},{"type":"Feature","properties":{"school_nm":"BLAINE","x":"-87.6649678407","grade_cat":"ES","y":"41.9507805197","sch_addr":"1420 W GRACE ST, 60613","school_id":"609803","grades":"PK, K, 1, 2, 3, 4, 5, 6, 7, 8","sch_type":"District, non-alternative"},"geometry":{"type":"Point","coordinates":[-87.66496784104658,41.95078051893785]}},{"type":"Feature","properties":{"school_nm":"BLAIR","x":"-87.790604431","grade_cat":"ES","y":"41.7765562685","sch_addr":"6751 W 63RD PL, 60638","school_id":"610087","grades":"PK, K, 1","sch_type":"District, Special Ed."},"geometry":{"type":"Point","coordinates":[-87.79060443059764,41.776556267494854]}},{"type":"Feature","properties":{"school_nm":"BOGAN HS","x":"-87.7210974436","grade_cat":"HS","y":"41.7493756072","sch_addr":"3939 W 79TH ST, 60652","school_id":"609698","grades":"9, 10, 11, 12","sch_type":"District, non-alternative"},"geometry":{"type":"Point","coordinates":[-87.72109744391896,41.74937560662585]}},{"type":"Feature","properties":{"school_nm":"BOND","x":"-87.6530177812","grade_cat":"ES","y":"41.7653605657","sch_addr":"7050 S MAY ST, 60621","school_id":"610238","grades":"PK, K, 1, 2, 3, 4, 5, 6, 7, 8","sch_type":"District, non-alternative"},"geometry":{"type":"Point","coordinates":[-87.65301778155418,41.76536056477167]}},{"type":"Feature","properties":{"school_nm":"BONTEMPS","x":"-87.6563363056","grade_cat":"ES","y":"41.7886005421","sch_addr":"1241 W 58TH ST, 60636","school_id":"610161","grades":"PK, K, 1, 2, 3, 4, 5, 6, 7, 8","sch_type":"District, non-alternative"},"geometry":{"type":"Point","coordinates":[-87.65633630602613,41.78860054153073]}},{"type":"Feature","properties":{"school_nm":"BOONE","x":"-87.6974628197","grade_cat":"ES","y":"42.0034116104","sch_addr":"6710 N WASHTENAW AVE, 60645","school_id":"609804","grades":"PK, K, 1, 2, 3, 4, 5, 6, 7, 8","sch_type":"District, non-alternative"},"geometry":{"type":"Point","coordinates":[-87.69746281961734,42.003411609960146]}},{"type":"Feature","properties":{"school_nm":"BOUCHET","x":"-87.5760748555","grade_cat":"ES","y":"41.7608474801","sch_addr":"7355 S JEFFERY BLVD, 60649","school_id":"609815","grades":"PK, K, 1, 2, 3, 4, 5, 6, 7, 8","sch_type":"District, non-alternative"},"geometry":{"type":"Point","coordinates":[-87.57607485593131,41.76084747903857]}},{"type":"Feature","properties":{"school_nm":"BRADWELL","x":"-87.5571419683","grade_cat":"ES","y":"41.7543651305","sch_addr":"7736 S BURNHAM AVE, 60649","school_id":"609806","grades":"PK, K, 1, 2, 3, 4, 5, 6, 7, 8","sch_type":"District, non-alternative"},"geometry":{"type":"Point","coordinates":[-87.557141968652,41.754365129429544]}},{"type":"Feature","properties":{"school_nm":"BRENNEMANN","x":"-87.6497491588","grade_cat":"ES","y":"41.9599841571","sch_addr":"4251 N CLARENDON AVE, 60613","school_id":"610242","grades":"PK, K, 1, 2, 3, 4, 5, 6, 7, 8","sch_type":"District, non-alternative"},"geometry":{"type":"Point","coordinates":[-87.64974915912128,41.95998415641754]}},{"type":"Feature","properties":{"school_nm":"BRENTANO","x":"-87.6962941954","grade_cat":"ES","y":"41.9309660987","sch_addr":"2723 N FAIRFIELD AVE, 60647","school_id":"609809","grades":"PK, K, 1, 2, 3, 4, 5, 6, 7, 8","sch_type":"District, non-alternative"},"geometry":{"type":"Point","coordinates":[-87.69629419593947,41.93096609759129]}},{"type":"Feature","properties":{"school_nm":"BRIDGE","x":"-87.7986689229","grade_cat":"ES","y":"41.9491143928","sch_addr":"3800 N NEW ENGLAND AVE, 60634","school_id":"609810","grades":"PK, K, 1, 2, 3, 4, 5, 6, 7, 8","sch_type":"District, non-alternative"},"geometry":{"type":"Point","coordinates":[-87.79866892293302,41.94911439167907]}},{"type":"Feature","properties":{"school_nm":"BRIGHT","x":"-87.5620842252","grade_cat":"ES","y":"41.6997262167","sch_addr":"10740 S CALHOUN AVE, 60617","school_id":"609811","grades":"PK, K, 1, 2, 3, 4, 5, 6, 7, 8","sch_type":"District, non-alternative"},"geometry":{"type":"Point","coordinates":[-87.56208422525296,41.69972621562909]}},{"type":"Feature","properties":{"school_nm":"BRIGHTON PARK","x":"-87.6920769253","grade_cat":"ES","y":"41.823899997","sch_addr":"3825 S WASHTENAW AVE, 60632","school_id":"610317","grades":"PK, K, 1, 2, 3, 4, 5, 6, 7, 8","sch_type":"District, non-alternative"},"geometry":{"type":"Point","coordinates":[-87.69207692529228,41.82389999613245]}},{"type":"Feature","properties":{"school_nm":"BRONZEVILLE HS","x":"-87.624447225","grade_cat":"HS","y":"41.8045581656","sch_addr":"4934 S WABASH AVE, 60615","school_id":"610381","grades":"9, 10, 11, 12","sch_type":"District, non-alternative"},"geometry":{"type":"Point","coordinates":[-87.62444722509098,41.80455816435276]}},{"type":"Feature","properties":{"school_nm":"BRONZEVILLE LTHOUSE CHTR CAMPUS","x":"-87.6266217993","grade_cat":"ES","y":"41.8192766084","sch_addr":"8 W ROOT ST, 60609","school_id":"400019","grades":"K, 1, 2, 3, 4, 5, 6, 7, 8","sch_type":"Charter"},"geometry":{"type":"Point","coordinates":[-87.62662179958019,41.8192766076449]}},{"type":"Feature","properties":{"school_nm":"BROOKS HS","x":"-87.6163526054","grade_cat":"HS","y":"41.6927625255","sch_addr":"250 E 111TH ST, 60628","school_id":"609726","grades":"9, 10, 11, 12","sch_type":"District, non-alternative"},"geometry":{"type":"Point","coordinates":[-87.61635260541085,41.69276252482062]}},{"type":"Feature","properties":{"school_nm":"BROWN, R","x":"-87.6389577214","grade_cat":"ES","y":"41.6648733473","sch_addr":"12607 S UNION AVE, 60628","school_id":"610091","grades":"PK, K, 1, 2, 3, 4, 5, 6, 7, 8","sch_type":"District, non-alternative"},"geometry":{"type":"Point","coordinates":[-87.63895772162304,41.66487334656535]}},{"type":"Feature","properties":{"school_nm":"BROWN, W","x":"-87.6706823904","grade_cat":"ES","y":"41.8829967859","sch_addr":"54 N HERMITAGE AVE, 60612","school_id":"609812","grades":"PK, K, 1, 2, 3, 4, 5, 6, 7, 8","sch_type":"District, non-alternative"},"geometry":{"type":"Point","coordinates":[-87.67068239047308,41.88299678503467]}},{"type":"Feature","properties":{"school_nm":"BROWNELL","x":"-87.6217459657","grade_cat":"ES","y":"41.7716203579","sch_addr":"6741 S MICHIGAN AVE, 60637","school_id":"609813","grades":"PK, K, 1, 2, 3, 4, 5, 6","sch_type":"District, non-alternative"},"geometry":{"type":"Point","coordinates":[-87.62174596598078,41.771620357258456]}},{"type":"Feature","properties":{"school_nm":"BRUNSON","x":"-87.7656056617","grade_cat":"ES","y":"41.8976625771","sch_addr":"932 N CENTRAL AVE, 60651","school_id":"609830","grades":"PK, K, 1, 2, 3, 4, 5, 6, 7, 8","sch_type":"District, non-alternative"},"geometry":{"type":"Point","coordinates":[-87.76560566211478,41.897662576133506]}},{"type":"Feature","properties":{"school_nm":"BUCKINGHAM","x":"-87.564430854","grade_cat":"ES","y":"41.7278495525","sch_addr":"9207 S PHILLIPS AVE, 60617","school_id":"610280","grades":"4, 5, 6, 7, 8","sch_type":"District, Special Ed."},"geometry":{"type":"Point","coordinates":[-87.56443085379988,41.72784955135423]}},{"type":"Feature","properties":{"school_nm":"BUDLONG","x":"-87.6965560293","grade_cat":"ES","y":"41.9757543324","sch_addr":"2701 W FOSTER AVE, 60625","school_id":"609817","grades":"PK, K, 1, 2, 3, 4, 5, 6, 7, 8","sch_type":"District, non-alternative"},"geometry":{"type":"Point","coordinates":[-87.69655602975104,41.97575433152083]}},{"type":"Feature","properties":{"school_nm":"BURBANK","x":"-87.7826995742","grade_cat":"ES","y":"41.9175981412","sch_addr":"2035 N MOBILE AVE, 60639","school_id":"609818","grades":"PK, K, 1, 2, 3, 4, 5, 6, 7, 8","sch_type":"District, non-alternative"},"geometry":{"type":"Point","coordinates":[-87.78269957445677,41.9175981401874]}},{"type":"Feature","properties":{"school_nm":"BURKE","x":"-87.616140519","grade_cat":"ES","y":"41.7967595595","sch_addr":"5356 S DR MARTIN LUTHER KING JR DR, 60615","school_id":"609819","grades":"PK, K, 1, 2, 3, 4, 5, 6, 7, 8","sch_type":"District, non-alternative"},"geometry":{"type":"Point","coordinates":[-87.61614051884341,41.79675955829413]}},{"type":"Feature","properties":{"school_nm":"BURLEY","x":"-87.6698531178","grade_cat":"ES","y":"41.9379374757","sch_addr":"1630 W BARRY AVE, 60657","school_id":"609820","grades":"PK, K, 1, 2, 3, 4, 5, 6, 7, 8","sch_type":"District, non-alternative"},"geometry":{"type":"Point","coordinates":[-87.66985311808394,41.93793747444671]}},{"type":"Feature","properties":{"school_nm":"CHGO MILITARY ACAD HS","x":"-87.6192155399","grade_cat":"HS","y":"41.8305549747","sch_addr":"3519 S GILES AVE, 60653","school_id":"609754","grades":"9, 10, 11, 12","sch_type":"District, non-alternative"},"geometry":{"type":"Point","coordinates":[-87.61921553986836,41.83055497347352]}},{"type":"Feature","properties":{"school_nm":"CHGO TALENT CHTR HS","x":"-87.730566383","grade_cat":"HS","y":"41.8841022438","sch_addr":"2245 W JACKSON BLVD, 60612","school_id":"400093","grades":"9, 10, 11","sch_type":"Charter"},"geometry":{"type":"Point","coordinates":[-87.73056638342959,41.88410224305368]}},{"type":"Feature","properties":{"school_nm":"CHICAGO VIRTUAL CHTR CAMPUS HS","x":"-87.6497724833","grade_cat":"HS","y":"41.880550113","sch_addr":"38 S PEORIA ST, 60607","school_id":"400036","grades":"K, 1, 2, 3, 4, 5, 6, 7, 8, 9, 10, 11, 12","sch_type":"Charter"},"geometry":{"type":"Point","coordinates":[-87.6497724836785,41.88055011181714]}},{"type":"Feature","properties":{"school_nm":"CHICAGO VOCATIONAL AA","x":"-87.5732675134","grade_cat":"HS","y":"41.7371739343","sch_addr":"2100 E 87TH ST, 60617","school_id":"609675","grades":"9, 10, 11, 12","sch_type":"High School"},"geometry":{"type":"Point","coordinates":[-87.57326751327676,41.73717393356583]}},{"type":"Feature","properties":{"school_nm":"CHICAGO VOCATIONAL HS (&AA)","x":"-87.5732675134","grade_cat":"HS","y":"41.7371739343","sch_addr":"2100 E 87TH ST, 60617","school_id":"609674","grades":"9, 10, 11, 12","sch_type":"District, non-alternative"},"geometry":{"type":"Point","coordinates":[-87.57326751327676,41.73717393356583]}},{"type":"Feature","properties":{"school_nm":"CHOPIN","x":"-87.6889367548","grade_cat":"ES","y":"41.8967126926","sch_addr":"2450 W RICE ST, 60622","school_id":"609854","grades":"PK, K, 1, 2, 3, 4, 5, 6, 7, 8","sch_type":"District, non-alternative"},"geometry":{"type":"Point","coordinates":[-87.6889367551871,41.89671269171547]}},{"type":"Feature","properties":{"school_nm":"CHRISTOPHER","x":"-87.6856070022","grade_cat":"ES","y":"41.8016586213","sch_addr":"5042 S ARTESIAN AVE, 60632","school_id":"609855","grades":"1, 2, 3, 4, 5, 6, 7, 8","sch_type":"District, Special Ed."},"geometry":{"type":"Point","coordinates":[-87.6856070019012,41.80165862056714]}},{"type":"Feature","properties":{"school_nm":"CHICAGO QUEST NORTH","x":"-87.6455614969","grade_cat":"HS","y":"41.9077968003","sch_addr":"1443 N OGDEN AVE, 60610","school_id":"400113","grades":"6, 7","sch_type":"Charter"},"geometry":{"type":"Point","coordinates":[-87.6455614972664,41.90779679953488]}},{"type":"Feature","properties":{"school_nm":"CICS-AVALON /SO SHORE","x":"-87.5879276375","grade_cat":"ES","y":"41.7431794163","sch_addr":"1501 E 83RD PL, 60619","school_id":"400023","grades":"K, 1, 2, 3, 4, 5, 6, 7, 8","sch_type":"Charter"},"geometry":{"type":"Point","coordinates":[-87.58792763793977,41.743179415245926]}},{"type":"Feature","properties":{"school_nm":"CICS-BASIL","x":"-87.6702426539","grade_cat":"ES","y":"41.7940428619","sch_addr":"1816 W GARFIELD BLVD, 60609","school_id":"400024","grades":"K, 1, 2, 3, 4, 5, 6, 7, 8","sch_type":"Charter"},"geometry":{"type":"Point","coordinates":[-87.67024265373098,41.79404286097647]}},{"type":"Feature","properties":{"school_nm":"CICS - LLOYD BOND","x":"-87.6050391029","grade_cat":"ES","y":"41.6536634497","sch_addr":"13300 S LANGLEY AVE, 60827","school_id":"400092","grades":"K, 1, 2, 3, 4, 5, 6","sch_type":"Charter"},"geometry":{"type":"Point","coordinates":[-87.60503910312013,41.65366344852332]}},{"type":"Feature","properties":{"school_nm":"CICS-BUCKTOWN","x":"-87.6813579639","grade_cat":"ES","y":"41.9224146346","sch_addr":"2235 N HAMILTON AVE, 60647","school_id":"400025","grades":"K, 1, 2, 3, 4, 5, 6, 7, 8","sch_type":"Charter"},"geometry":{"type":"Point","coordinates":[-87.681357963696,41.922414633609336]}},{"type":"Feature","properties":{"school_nm":"CICS-ELLISON","x":"-87.669342728","grade_cat":"HS","y":"41.748404328","sch_addr":"1817 W 80TH ST, 60620","school_id":"400032","grades":"8, 9, 10, 11, 12","sch_type":"Charter"},"geometry":{"type":"Point","coordinates":[-87.66934272820916,41.74840432700039]}},{"type":"Feature","properties":{"school_nm":"CICS-IRVING PARK","x":"-87.7104924248","grade_cat":"ES","y":"41.9508912784","sch_addr":"3820 N SPAULDING AVE, 60618","school_id":"400027","grades":"K, 1, 2, 3, 4, 5, 6, 7, 8","sch_type":"Charter"},"geometry":{"type":"Point","coordinates":[-87.71049242485752,41.95089127735629]}},{"type":"Feature","properties":{"school_nm":"CICS - HAWKINS","x":"-87.6022379149","grade_cat":"HS","y":"41.6544138432","sch_addr":"801 E 133RD ST, 60827","school_id":"400108","grades":"7, 8, 9, 10, 11, 12","sch_type":"Charter"},"geometry":{"type":"Point","coordinates":[-87.60223791531763,41.65441384230162]}},{"type":"Feature","properties":{"school_nm":"CICS-LONGWOOD","x":"-87.6557681313","grade_cat":"HS","y":"41.7212214323","sch_addr":"1309 W 95TH ST, 60643","school_id":"400033","grades":"3, 4, 5, 6, 7, 8, 9, 10, 11, 12","sch_type":"Charter"},"geometry":{"type":"Point","coordinates":[-87.65576813173352,41.721221431294495]}},{"type":"Feature","properties":{"school_nm":"CICS-LOOMIS","x":"-87.6575610523","grade_cat":"ES","y":"41.7202464236","sch_addr":"9535 S LOOMIS ST, 60643","school_id":"400026","grades":"K, 1, 2","sch_type":"Charter"},"geometry":{"type":"Point","coordinates":[-87.65756105261012,41.72024642293051]}},{"type":"Feature","properties":{"school_nm":"CICS-NORTHTOWN","x":"-87.7265042621","grade_cat":"HS","y":"41.9902450141","sch_addr":"3900 W PETERSON AVE, 60659","school_id":"400034","grades":"9, 10, 11, 12","sch_type":"Charter"},"geometry":{"type":"Point","coordinates":[-87.72650426191379,41.99024501311395]}},{"type":"Feature","properties":{"school_nm":"CICS-PRAIRIE","x":"-87.61688838","grade_cat":"ES","y":"41.684433039","sch_addr":"11530 S PRAIRIE AVE, 60628","school_id":"400028","grades":"K, 1, 2, 3, 4, 5, 6, 7, 8","sch_type":"Charter"},"geometry":{"type":"Point","coordinates":[-87.61688838053449,41.68443303792517]}},{"type":"Feature","properties":{"school_nm":"CICS-WASHINGTON PARK","x":"-87.6220684494","grade_cat":"ES","y":"41.7836168453","sch_addr":"6105 S MICHIGAN AVE, 60637","school_id":"400029","grades":"K, 1, 2, 3, 4, 5, 6, 7, 8","sch_type":"Charter"},"geometry":{"type":"Point","coordinates":[-87.62206844922291,41.783616844709286]}},{"type":"Feature","properties":{"school_nm":"DRAKE","x":"-87.6177309315","grade_cat":"ES","y":"41.8437929202","sch_addr":"2722 S DR MARTIN LUTHER KING JR DR, 60616","school_id":"609894","grades":"PK, K, 1, 2, 3, 4, 5, 6, 7, 8","sch_type":"District, non-alternative"},"geometry":{"type":"Point","coordinates":[-87.61773093137295,41.84379291906595]}},{"type":"Feature","properties":{"school_nm":"DRUMMOND","x":"-87.6744945985","grade_cat":"ES","y":"41.9159138066","sch_addr":"1845 W CORTLAND ST, 60622","school_id":"609896","grades":"PK, K, 1, 2, 3, 4, 5, 6, 7, 8","sch_type":"District, non-alternative"},"geometry":{"type":"Point","coordinates":[-87.67449459888856,41.915913805596354]}},{"type":"Feature","properties":{"school_nm":"DUBOIS","x":"-87.6143200089","grade_cat":"ES","y":"41.6537329785","sch_addr":"330 E 133RD ST, 60827","school_id":"610364","grades":"PK, K, 1, 2, 3, 4, 5, 6, 7, 8","sch_type":"District, non-alternative"},"geometry":{"type":"Point","coordinates":[-87.61432000904844,41.65373297797803]}},{"type":"Feature","properties":{"school_nm":"DULLES","x":"-87.6172141765","grade_cat":"ES","y":"41.7799004898","sch_addr":"6311 S CALUMET AVE, 60637","school_id":"610263","grades":"PK, K, 1, 2, 3, 4, 5, 6, 7, 8","sch_type":"District, non-alternative"},"geometry":{"type":"Point","coordinates":[-87.6172141767053,41.77990048906665]}},{"type":"Feature","properties":{"school_nm":"DUMAS TECH ACAD","x":"-87.6010181122","grade_cat":"ES","y":"41.7734778978","sch_addr":"6650 S ELLIS AVE, 60637","school_id":"610266","grades":"PK, K, 1, 2, 3, 4, 5, 6, 7, 8","sch_type":"District, non-alternative"},"geometry":{"type":"Point","coordinates":[-87.601018112795,41.77347789658421]}},{"type":"Feature","properties":{"school_nm":"DUNBAR HS","x":"-87.6176374344","grade_cat":"HS","y":"41.8402255716","sch_addr":"3000 S DR MARTIN LUTHER KING JR DR, 60616","school_id":"609676","grades":"9, 10, 11, 12","sch_type":"District, non-alternative"},"geometry":{"type":"Point","coordinates":[-87.6176374346132,41.840225570781655]}},{"type":"Feature","properties":{"school_nm":"DUNNE TECH ACAD","x":"-87.6399736018","grade_cat":"ES","y":"41.69649616","sch_addr":"10845 S UNION AVE, 60628","school_id":"610188","grades":"PK, K, 1, 2, 3, 4, 5, 6, 7, 8","sch_type":"District, non-alternative"},"geometry":{"type":"Point","coordinates":[-87.63997360186424,41.6964961593119]}},{"type":"Feature","properties":{"school_nm":"DURKIN PARK","x":"-87.7299552889","grade_cat":"ES","y":"41.7388439386","sch_addr":"8445 S KOLIN AVE, 60652","school_id":"610352","grades":"PK, K, 1, 2, 3, 4, 5, 6, 7, 8","sch_type":"District, non-alternative"},"geometry":{"type":"Point","coordinates":[-87.72995528882623,41.738843937850206]}},{"type":"Feature","properties":{"school_nm":"DVORAK TECH ACAD","x":"-87.7157435623","grade_cat":"ES","y":"41.8588834496","sch_addr":"3615 W 16TH ST, 60623","school_id":"610254","grades":"PK, K, 1, 2, 3, 4, 5, 6, 7, 8","sch_type":"District, non-alternative"},"geometry":{"type":"Point","coordinates":[-87.71574356213455,41.858883448787836]}},{"type":"Feature","properties":{"school_nm":"DYETT HS","x":"-87.6119307255","grade_cat":"HS","y":"41.8020772336","sch_addr":"555 E 51ST ST, 60615","school_id":"609736","grades":"9, 10, 11, 12","sch_type":"District, non-alternative"},"geometry":{"type":"Point","coordinates":[-87.61193072546541,41.80207723245096]}},{"type":"Feature","properties":{"school_nm":"EARHART","x":"-87.5821817365","grade_cat":"ES","y":"41.7261074533","sch_addr":"1710 E 93RD ST, 60617","school_id":"610316","grades":"K, 1, 2, 3, 4, 5, 6, 7, 8","sch_type":"District, non-alternative"},"geometry":{"type":"Point","coordinates":[-87.58218173668236,41.72610745208292]}},{"type":"Feature","properties":{"school_nm":"EARLE","x":"-87.6678140126","grade_cat":"ES","y":"41.7823111956","sch_addr":"6121 S HERMITAGE AVE, 60636","school_id":"609897","grades":"PK, K, 1, 2, 3, 4, 5, 6, 7, 8","sch_type":"District, non-alternative"},"geometry":{"type":"Point","coordinates":[-87.66781401288397,41.782311195152005]}},{"type":"Feature","properties":{"school_nm":"EBERHART","x":"-87.7079526312","grade_cat":"ES","y":"41.774420449","sch_addr":"3400 W 65TH PL, 60629","school_id":"609898","grades":"PK, K, 1, 2, 3, 4, 5, 6, 7, 8","sch_type":"District, non-alternative"},"geometry":{"type":"Point","coordinates":[-87.7079526311113,41.77442044798]}},{"type":"Feature","properties":{"school_nm":"EBINGER","x":"-87.8111697846","grade_cat":"ES","y":"42.004407925","sch_addr":"7350 W PRATT AVE, 60631","school_id":"609899","grades":"PK, K, 1, 2, 3, 4, 5, 6, 7, 8","sch_type":"District, non-alternative"},"geometry":{"type":"Point","coordinates":[-87.81116978483423,42.00440792383863]}},{"type":"Feature","properties":{"school_nm":"EDGEBROOK","x":"-87.7618404794","grade_cat":"ES","y":"41.9994368375","sch_addr":"6525 N HIAWATHA AVE, 60646","school_id":"609901","grades":"K, 1, 2, 3, 4, 5, 6, 7, 8","sch_type":"District, non-alternative"},"geometry":{"type":"Point","coordinates":[-87.76184047923068,41.9994368363987]}},{"type":"Feature","properties":{"school_nm":"EDISON, T","x":"-87.7096639791","grade_cat":"ES","y":"41.9711414891","sch_addr":"4929 N SAWYER AVE, 60625","school_id":"609794","grades":"K, 1, 2, 3, 4, 5, 6, 7, 8","sch_type":"District, non-alternative"},"geometry":{"type":"Point","coordinates":[-87.70966397934643,41.971141487822294]}},{"type":"Feature","properties":{"school_nm":"EDISON PARK","x":"-87.8137712365","grade_cat":"ES","y":"41.9942379533","sch_addr":"6220 N OLCOTT AVE, 60631","school_id":"610523","grades":"PK, K, 1, 2, 3, 4, 5, 6, 7, 8","sch_type":"District, non-alternative"},"geometry":{"type":"Point","coordinates":[-87.8137712364274,41.994237952336896]}},{"type":"Feature","properties":{"school_nm":"LAKE VIEW HS","x":"-87.6689526866","grade_cat":"HS","y":"41.954764069","sch_addr":"4015 N ASHLAND AVE, 60613","school_id":"609719","grades":"9, 10, 11, 12","sch_type":"District, non-alternative"},"geometry":{"type":"Point","coordinates":[-87.6689526871653,41.954764068098896]}},{"type":"Feature","properties":{"school_nm":"GALILEO","x":"-87.6533655505","grade_cat":"ES","y":"41.871254826","sch_addr":"820 S CARPENTER ST, 60607","school_id":"610009","grades":"PK, K, 1, 2, 3, 4, 5, 6, 7, 8","sch_type":"District, non-alternative"},"geometry":{"type":"Point","coordinates":[-87.65336555067111,41.87125482480059]}},{"type":"Feature","properties":{"school_nm":"EDWARDS","x":"-87.725856172","grade_cat":"ES","y":"41.8055415375","sch_addr":"4815 S KARLOV AVE, 60632","school_id":"609903","grades":"PK, K, 1, 2, 3, 4, 5, 6, 7, 8","sch_type":"District, non-alternative"},"geometry":{"type":"Point","coordinates":[-87.72585617191106,41.805541536373035]}},{"type":"Feature","properties":{"school_nm":"ELLINGTON","x":"-87.7665893804","grade_cat":"ES","y":"41.8855295806","sch_addr":"243 N PARKSIDE AVE, 60644","school_id":"609904","grades":"PK, K, 1, 2, 3, 4, 5, 6, 7, 8","sch_type":"District, non-alternative"},"geometry":{"type":"Point","coordinates":[-87.76658938012498,41.88552957977114]}},{"type":"Feature","properties":{"school_nm":"EMMET","x":"-87.7632406214","grade_cat":"ES","y":"41.8803495628","sch_addr":"5500 W MADISON ST, 60644","school_id":"609906","grades":"PK, K, 1, 2, 3, 4, 5, 6, 7, 8","sch_type":"District, non-alternative"},"geometry":{"type":"Point","coordinates":[-87.7632406215263,41.88034956180722]}},{"type":"Feature","properties":{"school_nm":"EPIC CHTR HS","x":"-87.5502223648","grade_cat":"HS","y":"41.7448491027","sch_addr":"8255 S HOUSTON AVE, 60617","school_id":"400094","grades":"9, 10, 11","sch_type":"Charter"},"geometry":{"type":"Point","coordinates":[-87.5502223647406,41.74484910196158]}},{"type":"Feature","properties":{"school_nm":"ERICSON","x":"-87.7158044261","grade_cat":"ES","y":"41.8757441264","sch_addr":"3600 W FIFTH AVE, 60624","school_id":"609907","grades":"PK, K, 1, 2, 3, 4, 5, 6, 7, 8","sch_type":"District, non-alternative"},"geometry":{"type":"Point","coordinates":[-87.71580442665876,41.875744125311584]}},{"type":"Feature","properties":{"school_nm":"ERIE CHTR CAMPUS","x":"-87.6943644419","grade_cat":"ES","y":"41.9067706359","sch_addr":"1405 N WASHTENAW AVE, 60622","school_id":"400039","grades":"K, 1, 2, 3, 4, 5, 6, 7","sch_type":"Charter"},"geometry":{"type":"Point","coordinates":[-87.69436444160928,41.90677063474983]}},{"type":"Feature","properties":{"school_nm":"ESMOND","x":"-87.6691586677","grade_cat":"ES","y":"41.6894196038","sch_addr":"1865 W MONTVALE AVE, 60643","school_id":"609908","grades":"PK, K, 1, 2, 3, 4, 5, 6, 7, 8","sch_type":"District, non-alternative"},"geometry":{"type":"Point","coordinates":[-87.66915866761671,41.68941960284579]}},{"type":"Feature","properties":{"school_nm":"EVERETT","x":"-87.6813103002","grade_cat":"ES","y":"41.831555158","sch_addr":"3419 S BELL AVE, 60608","school_id":"609909","grades":"PK, K, 1, 2, 3, 4, 5","sch_type":"District, non-alternative"},"geometry":{"type":"Point","coordinates":[-87.6813103001497,41.8315551570294]}},{"type":"Feature","properties":{"school_nm":"EVERGREEN","x":"-87.6678165066","grade_cat":"MS","y":"41.8293556154","sch_addr":"3537 S PAULINA ST, 60609","school_id":"610319","grades":"6, 7, 8","sch_type":"District, non-alternative"},"geometry":{"type":"Point","coordinates":[-87.667816506977,41.82935561507831]}},{"type":"Feature","properties":{"school_nm":"EVERS","x":"-87.639305468","grade_cat":"ES","y":"41.7156653559","sch_addr":"9811 S LOWE AVE, 60628","school_id":"610362","grades":"PK, K, 1, 2, 3, 4, 5, 6, 7, 8","sch_type":"District, non-alternative"},"geometry":{"type":"Point","coordinates":[-87.63930546778323,41.71566535483587]}},{"type":"Feature","properties":{"school_nm":"FAIRFIELD","x":"-87.6921150625","grade_cat":"ES","y":"41.7809038959","sch_addr":"6201 S FAIRFIELD AVE, 60629","school_id":"610057","grades":"K, 1, 2, 3, 4, 5, 6, 7, 8","sch_type":"District, non-alternative"},"geometry":{"type":"Point","coordinates":[-87.6921150626034,41.78090389507422]}},{"type":"Feature","properties":{"school_nm":"FALCONER","x":"-87.7493306286","grade_cat":"ES","y":"41.9357845776","sch_addr":"3020 N LAMON AVE, 60641","school_id":"609910","grades":"PK, K, 1, 2, 3, 4, 5, 6","sch_type":"District, non-alternative"},"geometry":{"type":"Point","coordinates":[-87.74933062872904,41.93578457659085]}},{"type":"Feature","properties":{"school_nm":"FARADAY","x":"-87.7080920154","grade_cat":"ES","y":"41.8797135937","sch_addr":"3250 W MONROE ST, 60624","school_id":"610055","grades":"K, 1, 2, 3, 4, 5, 6, 7, 8","sch_type":"District, non-alternative"},"geometry":{"type":"Point","coordinates":[-87.70809201560219,41.87971359329826]}},{"type":"Feature","properties":{"school_nm":"FARNSWORTH","x":"-87.7660716613","grade_cat":"ES","y":"41.9797900576","sch_addr":"5414 N LINDER AVE, 60630","school_id":"609912","grades":"PK, K, 1, 2, 3, 4, 5, 6, 7, 8","sch_type":"District, non-alternative"},"geometry":{"type":"Point","coordinates":[-87.76607166179456,41.979790056706015]}},{"type":"Feature","properties":{"school_nm":"FARRAGUT HS","x":"-87.7087056285","grade_cat":"HS","y":"41.8485598767","sch_addr":"2345 S CHRISTIANA AVE, 60623","school_id":"609704","grades":"PK, 9, 10, 11, 12","sch_type":"District, non-alternative"},"geometry":{"type":"Point","coordinates":[-87.70870562862254,41.848559875629725]}},{"type":"Feature","properties":{"school_nm":"FENGER AA","x":"-87.6375720494","grade_cat":"HS","y":"41.6899507254","sch_addr":"11220 S WALLACE ST, 60628","school_id":"609706","grades":"9, 10","sch_type":"High School"},"geometry":{"type":"Point","coordinates":[-87.63757204960004,41.68995072453945]}},{"type":"Feature","properties":{"school_nm":"FENGER HS (&AA)","x":"-87.6375720494","grade_cat":"HS","y":"41.6899507254","sch_addr":"11220 S WALLACE ST, 60628","school_id":"609705","grades":"9, 10, 11, 12","sch_type":"District, non-alternative"},"geometry":{"type":"Point","coordinates":[-87.63757204960004,41.68995072453945]}},{"type":"Feature","properties":{"school_nm":"CICS-WEST BELDEN","x":"-87.7767485442","grade_cat":"ES","y":"41.9216874957","sch_addr":"2245 N MCVICKER AVE, 60639","school_id":"400030","grades":"K, 1, 2, 3, 4, 5, 6, 7, 8","sch_type":"Charter"},"geometry":{"type":"Point","coordinates":[-87.77674854428612,41.92168749463661]}},{"type":"Feature","properties":{"school_nm":"CICS-WRIGHTWOOD","x":"-87.6926143976","grade_cat":"ES","y":"41.745365451","sch_addr":"8130 S CALIFORNIA AVE, 60652","school_id":"400031","grades":"K, 1, 2, 3, 4, 5, 6, 7, 8","sch_type":"Charter"},"geometry":{"type":"Point","coordinates":[-87.6926143976107,41.74536544989641]}},{"type":"Feature","properties":{"school_nm":"CLAREMONT","x":"-87.6810611949","grade_cat":"ES","y":"41.7775105077","sch_addr":"2300 W 64TH ST, 60636","school_id":"610347","grades":"PK, K, 1, 2, 3, 4, 5, 6, 7, 8","sch_type":"District, non-alternative"},"geometry":{"type":"Point","coordinates":[-87.68106119530061,41.7775105072609]}},{"type":"Feature","properties":{"school_nm":"CLARK, G","x":"-87.7704175306","grade_cat":"ES","y":"41.8678125723","sch_addr":"1045 S MONITOR AVE, 60644","school_id":"609795","grades":"PK, K, 1, 2, 3, 4, 5, 6, 7, 8","sch_type":"District, non-alternative"},"geometry":{"type":"Point","coordinates":[-87.77041753096547,41.86781257113621]}},{"type":"Feature","properties":{"school_nm":"CLARK HS","x":"-87.7533248726","grade_cat":"HS","y":"41.8728850095","sch_addr":"5101 W HARRISON ST, 60644","school_id":"610244","grades":"6, 7, 8, 9, 10, 11, 12","sch_type":"District, non-alternative"},"geometry":{"type":"Point","coordinates":[-87.75332487251406,41.872885008575636]}},{"type":"Feature","properties":{"school_nm":"CLAY","x":"-87.544613595","grade_cat":"ES","y":"41.6545581456","sch_addr":"13231 S BURLEY AVE, 60633","school_id":"609856","grades":"PK, K, 1, 2, 3, 4, 5, 6, 7, 8","sch_type":"District, non-alternative"},"geometry":{"type":"Point","coordinates":[-87.54461359533376,41.654558144778846]}},{"type":"Feature","properties":{"school_nm":"CLEMENTE AA","x":"-87.6869061419","grade_cat":"HS","y":"41.9026257965","sch_addr":"1147 N WESTERN AVE, 60622","school_id":"610401","grades":"9, 10","sch_type":"High School"},"geometry":{"type":"Point","coordinates":[-87.6869061421924,41.90262579606038]}},{"type":"Feature","properties":{"school_nm":"CLEMENTE HS (&AA)","x":"-87.6869061419","grade_cat":"HS","y":"41.9026257965","sch_addr":"1147 N WESTERN AVE, 60622","school_id":"609759","grades":"9, 10, 11, 12","sch_type":"District, non-alternative"},"geometry":{"type":"Point","coordinates":[-87.6869061421924,41.90262579606038]}},{"type":"Feature","properties":{"school_nm":"CLEVELAND","x":"-87.7064425191","grade_cat":"ES","y":"41.9520421223","sch_addr":"3121 W BYRON ST, 60618","school_id":"609857","grades":"PK, K, 1, 2, 3, 4, 5, 6, 7, 8","sch_type":"District, non-alternative"},"geometry":{"type":"Point","coordinates":[-87.70644251942463,41.95204212169268]}},{"type":"Feature","properties":{"school_nm":"CLINTON","x":"-87.6983599516","grade_cat":"ES","y":"41.9925413605","sch_addr":"6110 N FAIRFIELD AVE, 60659","school_id":"609859","grades":"PK, K, 1, 2, 3, 4, 5, 6, 7, 8","sch_type":"District, non-alternative"},"geometry":{"type":"Point","coordinates":[-87.69835995190655,41.99254135949233]}},{"type":"Feature","properties":{"school_nm":"CLISSOLD","x":"-87.6808967837","grade_cat":"ES","y":"41.6930260029","sch_addr":"2350 W 110TH PL, 60643","school_id":"609861","grades":"K, 1, 2, 3, 4, 5, 6, 7, 8","sch_type":"District, non-alternative"},"geometry":{"type":"Point","coordinates":[-87.68089678365334,41.69302600202324]}},{"type":"Feature","properties":{"school_nm":"COLEMON","x":"-87.6581108325","grade_cat":"ES","y":"41.6775054443","sch_addr":"1441 W 119TH ST, 60643","school_id":"610199","grades":"PK, K, 1, 2, 3, 4, 5, 6, 7, 8","sch_type":"District, non-alternative"},"geometry":{"type":"Point","coordinates":[-87.65811083288288,41.67750544369081]}},{"type":"Feature","properties":{"school_nm":"COLES","x":"-87.5659697669","grade_cat":"ES","y":"41.7414128036","sch_addr":"8441 S YATES BLVD, 60617","school_id":"609862","grades":"PK, K, 1, 2, 3, 4, 5, 6, 7, 8","sch_type":"District, non-alternative"},"geometry":{"type":"Point","coordinates":[-87.56596976705605,41.74141280278475]}},{"type":"Feature","properties":{"school_nm":"COLLINS HS","x":"-87.7020415808","grade_cat":"HS","y":"41.8641485696","sch_addr":"1313 S SACRAMENTO DR, 60623","school_id":"610499","grades":"9, 10, 11, 12","sch_type":"District, non-alternative"},"geometry":{"type":"Point","coordinates":[-87.70204158095243,41.86414856863989]}},{"type":"Feature","properties":{"school_nm":"COLUMBIA EXPLORERS","x":"-87.7041985884","grade_cat":"ES","y":"41.8110686053","sch_addr":"4520 S KEDZIE AVE, 60632","school_id":"610170","grades":"K, 1, 2, 3, 4, 5, 6, 7, 8","sch_type":"District, non-alternative"},"geometry":{"type":"Point","coordinates":[-87.70419858876978,41.81106860472711]}},{"type":"Feature","properties":{"school_nm":"COLUMBUS","x":"-87.6819380458","grade_cat":"ES","y":"41.8995657803","sch_addr":"1003 N LEAVITT ST, 60622","school_id":"609863","grades":"PK, K, 1, 2, 3, 4, 5, 6, 7, 8","sch_type":"District, non-alternative"},"geometry":{"type":"Point","coordinates":[-87.68193804566211,41.899565779332924]}},{"type":"Feature","properties":{"school_nm":"COMMUNITY CONTR","x":"-87.7250220189","grade_cat":"HS","y":"41.8649522613","sch_addr":"1239 S PULASKI RD, 60623","school_id":"400038","grades":"11, 12","sch_type":"Contract"},"geometry":{"type":"Point","coordinates":[-87.72502201871139,41.864952260678784]}},{"type":"Feature","properties":{"school_nm":"COOK","x":"-87.6597745896","grade_cat":"ES","y":"41.7452370213","sch_addr":"8150 S BISHOP ST, 60620","school_id":"609864","grades":"PK, K, 1, 2, 3, 4, 5, 6, 7, 8","sch_type":"District, non-alternative"},"geometry":{"type":"Point","coordinates":[-87.65977458981087,41.74523702051949]}},{"type":"Feature","properties":{"school_nm":"COONLEY","x":"-87.6837652966","grade_cat":"ES","y":"41.9555531968","sch_addr":"4046 N LEAVITT ST, 60618","school_id":"609866","grades":"PK, K, 1, 2, 3, 4, 5, 6, 7, 8","sch_type":"District, non-alternative"},"geometry":{"type":"Point","coordinates":[-87.68376529713429,41.95555319557804]}},{"type":"Feature","properties":{"school_nm":"COOPER","x":"-87.6672270791","grade_cat":"ES","y":"41.8560311952","sch_addr":"1624 W 19TH ST, 60608","school_id":"609867","grades":"PK, K, 1, 2, 3, 4, 5","sch_type":"District, non-alternative"},"geometry":{"type":"Point","coordinates":[-87.66722707961505,41.85603119462488]}},{"type":"Feature","properties":{"school_nm":"CORKERY","x":"-87.7311928645","grade_cat":"ES","y":"41.8456024248","sch_addr":"2510 S KILDARE AVE, 60623","school_id":"609870","grades":"PK, K, 1, 2, 3, 4, 5, 6, 7, 8","sch_type":"District, non-alternative"},"geometry":{"type":"Point","coordinates":[-87.73119286445326,41.845602424144246]}},{"type":"Feature","properties":{"school_nm":"CORLISS HS","x":"-87.6030636069","grade_cat":"HS","y":"41.7074186372","sch_addr":"821 E 103RD ST, 60628","school_id":"609761","grades":"9, 10, 11, 12","sch_type":"District, non-alternative"},"geometry":{"type":"Point","coordinates":[-87.60306360631515,41.707418636182396]}},{"type":"Feature","properties":{"school_nm":"COURTENAY","x":"-87.671909304","grade_cat":"ES","y":"41.9579892199","sch_addr":"1726 W BERTEAU AVE, 60613","school_id":"610355","grades":"PK, K, 1, 2, 3, 4, 5, 6, 7, 8","sch_type":"District, non-alternative"},"geometry":{"type":"Point","coordinates":[-87.67190930462202,41.95798921930858]}},{"type":"Feature","properties":{"school_nm":"CRANE AA","x":"-87.6832481961","grade_cat":"HS","y":"41.8775013013","sch_addr":"2245 W JACKSON BLVD, 60612","school_id":"610378","grades":"9, 10","sch_type":"High School"},"geometry":{"type":"Point","coordinates":[-87.68324819624402,41.8775013000592]}},{"type":"Feature","properties":{"school_nm":"CRANE HS (&AA)","x":"-87.6832481961","grade_cat":"HS","y":"41.8775013013","sch_addr":"2245 W JACKSON BLVD, 60612","school_id":"609702","grades":"9, 10, 11, 12","sch_type":"District, non-alternative"},"geometry":{"type":"Point","coordinates":[-87.68324819624402,41.8775013000592]}},{"type":"Feature","properties":{"school_nm":"CROWN","x":"-87.7124701482","grade_cat":"ES","y":"41.8526634915","sch_addr":"2128 S ST LOUIS AVE, 60623","school_id":"609873","grades":"PK, K, 1, 2, 3, 4, 5, 6, 7, 8","sch_type":"District, non-alternative"},"geometry":{"type":"Point","coordinates":[-87.7124701481783,41.85266349036714]}},{"type":"Feature","properties":{"school_nm":"CUFFE","x":"-87.6536334447","grade_cat":"ES","y":"41.7424516254","sch_addr":"8324 S RACINE AVE, 60620","school_id":"610003","grades":"PK, K, 1, 2, 3, 4, 5, 6, 7, 8","sch_type":"District, non-alternative"},"geometry":{"type":"Point","coordinates":[-87.6536334446865,41.74245162472968]}},{"type":"Feature","properties":{"school_nm":"CULLEN","x":"-87.6112444554","grade_cat":"ES","y":"41.700335138","sch_addr":"10650 S EBERHART AVE, 60628","school_id":"610004","grades":"K, 1, 2, 3, 4, 5, 6, 7, 8","sch_type":"District, non-alternative"},"geometry":{"type":"Point","coordinates":[-87.61124445486439,41.70033513724309]}},{"type":"Feature","properties":{"school_nm":"CURIE HS","x":"-87.7220416587","grade_cat":"HS","y":"41.803060204","sch_addr":"4959 S ARCHER AVE, 60632","school_id":"609756","grades":"9, 10, 11, 12","sch_type":"District, non-alternative"},"geometry":{"type":"Point","coordinates":[-87.72204165832203,41.80306020311536]}},{"type":"Feature","properties":{"school_nm":"CURTIS","x":"-87.6216526041","grade_cat":"ES","y":"41.6854183982","sch_addr":"32 E 115TH ST, 60628","school_id":"609900","grades":"PK, K, 1, 2, 3, 4, 5, 6, 7, 8","sch_type":"District, non-alternative"},"geometry":{"type":"Point","coordinates":[-87.62165260400798,41.68541839696618]}},{"type":"Feature","properties":{"school_nm":"DALEY","x":"-87.6722063983","grade_cat":"ES","y":"41.8023428668","sch_addr":"5024 S WOLCOTT AVE, 60609","school_id":"610239","grades":"PK, K, 1, 2, 3, 4, 5, 6, 7, 8","sch_type":"District, non-alternative"},"geometry":{"type":"Point","coordinates":[-87.67220639857509,41.802342865697376]}},{"type":"Feature","properties":{"school_nm":"DARWIN","x":"-87.7054129112","grade_cat":"ES","y":"41.923322721","sch_addr":"3116 W BELDEN AVE, 60647","school_id":"609875","grades":"PK, K, 1, 2, 3, 4, 5, 6, 7, 8","sch_type":"District, non-alternative"},"geometry":{"type":"Point","coordinates":[-87.70541291140192,41.92332272039031]}},{"type":"Feature","properties":{"school_nm":"DAVIS, M","x":"-87.6665298821","grade_cat":"ES","y":"41.7712211086","sch_addr":"6730 S PAULINA ST, 60636","school_id":"610521","grades":"K, 1, 2, 3, 4, 5, 6, 7, 8","sch_type":"District, non-alternative"},"geometry":{"type":"Point","coordinates":[-87.666529882092,41.77122110762054]}},{"type":"Feature","properties":{"school_nm":"DAVIS, N","x":"-87.7002021561","grade_cat":"ES","y":"41.8218516128","sch_addr":"3014 W 39TH PL, 60632","school_id":"609876","grades":"PK, K, 1, 2, 3, 4, 5, 6, 7, 8","sch_type":"District, non-alternative"},"geometry":{"type":"Point","coordinates":[-87.70020215666865,41.82185161195346]}},{"type":"Feature","properties":{"school_nm":"FERMI","x":"-87.5903961004","grade_cat":"ES","y":"41.7677551076","sch_addr":"1415 E 70TH ST, 60637","school_id":"609916","grades":"PK, K, 1, 2, 3, 4, 5, 6, 7, 8","sch_type":"District, non-alternative"},"geometry":{"type":"Point","coordinates":[-87.59039610087879,41.76775510691513]}},{"type":"Feature","properties":{"school_nm":"FERNWOOD","x":"-87.6404136445","grade_cat":"ES","y":"41.7111836217","sch_addr":"10041 S UNION AVE, 60628","school_id":"609917","grades":"PK, K, 1, 2, 3, 4, 5, 6, 7, 8","sch_type":"District, non-alternative"},"geometry":{"type":"Point","coordinates":[-87.64041364439849,41.71118362044798]}},{"type":"Feature","properties":{"school_nm":"FIELD","x":"-87.6699853983","grade_cat":"ES","y":"42.0096638586","sch_addr":"7019 N ASHLAND BLVD, 60626","school_id":"609918","grades":"4, 5, 6, 7, 8","sch_type":"District, non-alternative"},"geometry":{"type":"Point","coordinates":[-87.66998539823486,42.00966385736847]}},{"type":"Feature","properties":{"school_nm":"FINKL","x":"-87.6856678409","grade_cat":"ES","y":"41.8492149069","sch_addr":"2332 S WESTERN AVE, 60608","school_id":"609967","grades":"PK, K, 1, 2, 3, 4, 5, 6, 7, 8","sch_type":"District, non-alternative"},"geometry":{"type":"Point","coordinates":[-87.68566784145236,41.84921490605565]}},{"type":"Feature","properties":{"school_nm":"FISKE","x":"-87.6026331652","grade_cat":"ES","y":"41.7828921644","sch_addr":"6145 S INGLESIDE AVE, 60637","school_id":"609919","grades":"PK, K, 1, 2, 3, 4, 5, 6, 7, 8","sch_type":"District, non-alternative"},"geometry":{"type":"Point","coordinates":[-87.602633165719,41.78289216328662]}},{"type":"Feature","properties":{"school_nm":"FORD CHTR HS","x":"-87.7105266169","grade_cat":"HS","y":"41.8693125524","sch_addr":"931 S HOMAN AVE, 60624","school_id":"400042","grades":"9, 10, 11, 12","sch_type":"Charter"},"geometry":{"type":"Point","coordinates":[-87.71052661732601,41.86931255118541]}},{"type":"Feature","properties":{"school_nm":"FOREMAN HS","x":"-87.7541665463","grade_cat":"HS","y":"41.9397967728","sch_addr":"3235 N LECLAIRE AVE, 60641","school_id":"609708","grades":"9, 10, 11, 12","sch_type":"District, non-alternative"},"geometry":{"type":"Point","coordinates":[-87.75416654627642,41.93979677179985]}},{"type":"Feature","properties":{"school_nm":"FORT DEARBORN","x":"-87.6554811537","grade_cat":"ES","y":"41.7296726738","sch_addr":"9025 S THROOP ST, 60620","school_id":"609924","grades":"PK, K, 1, 2, 3, 4, 5, 6, 7, 8","sch_type":"District, non-alternative"},"geometry":{"type":"Point","coordinates":[-87.65548115370687,41.72967267318617]}},{"type":"Feature","properties":{"school_nm":"FOSTER PARK","x":"-87.6680993097","grade_cat":"ES","y":"41.7384254766","sch_addr":"8530 S WOOD ST, 60620","school_id":"609927","grades":"PK, K, 1, 2, 3, 4, 5, 6, 7, 8","sch_type":"District, non-alternative"},"geometry":{"type":"Point","coordinates":[-87.66809930995785,41.738425475426936]}},{"type":"Feature","properties":{"school_nm":"FRANKLIN","x":"-87.635512808","grade_cat":"ES","y":"41.9065999933","sch_addr":"225 W EVERGREEN AVE, 60610","school_id":"609926","grades":"K, 1, 2, 3, 4, 5, 6, 7, 8","sch_type":"District, non-alternative"},"geometry":{"type":"Point","coordinates":[-87.63551280787603,41.90659999214914]}},{"type":"Feature","properties":{"school_nm":"FRAZIER PROSPECTIVE","x":"-87.7263130409","grade_cat":"ES","y":"41.8669862173","sch_addr":"4027 W GRENSHAW ST, 60624","school_id":"610503","grades":"K, 1, 2, 3, 4, 5, 6, 7, 8","sch_type":"District, non-alternative"},"geometry":{"type":"Point","coordinates":[-87.72631304077562,41.86698621626967]}},{"type":"Feature","properties":{"school_nm":"FRAZIER CONTR","x":"-87.7263130409","grade_cat":"ES","y":"41.8669862173","sch_addr":"4027 W GRENSHAW ST, 60624","school_id":"400040","grades":"K, 1, 2, 3, 4, 5, 6, 7, 8","sch_type":"Contract"},"geometry":{"type":"Point","coordinates":[-87.72631304077562,41.86698621626967]}},{"type":"Feature","properties":{"school_nm":"FULLER","x":"-87.6117840412","grade_cat":"ES","y":"41.8180034011","sch_addr":"4214 S ST LAWRENCE AVE, 60653","school_id":"609928","grades":"PK, K, 1, 2, 3, 4, 5, 6, 7, 8","sch_type":"District, non-alternative"},"geometry":{"type":"Point","coordinates":[-87.61178404148056,41.81800340022484]}},{"type":"Feature","properties":{"school_nm":"FULTON","x":"-87.6684358801","grade_cat":"ES","y":"41.797580269","sch_addr":"5300 S HERMITAGE AVE, 60609","school_id":"609929","grades":"PK, K, 1, 2, 3, 4, 5, 6, 7, 8","sch_type":"District, non-alternative"},"geometry":{"type":"Point","coordinates":[-87.66843588061812,41.797580268211725]}},{"type":"Feature","properties":{"school_nm":"FUNSTON","x":"-87.7168916597","grade_cat":"ES","y":"41.9176165192","sch_addr":"2010 N CENTRAL PARK AVE, 60647","school_id":"609930","grades":"PK, K, 1, 2, 3, 4, 5, 6, 7, 8","sch_type":"District, non-alternative"},"geometry":{"type":"Point","coordinates":[-87.71689165994019,41.91761651821139]}},{"type":"Feature","properties":{"school_nm":"GAGE PARK HS","x":"-87.6889539391","grade_cat":"HS","y":"41.7910128385","sch_addr":"5630 S ROCKWELL ST, 60629","school_id":"609709","grades":"9, 10, 11, 12","sch_type":"District, non-alternative"},"geometry":{"type":"Point","coordinates":[-87.68895393954807,41.79101283729644]}},{"type":"Feature","properties":{"school_nm":"GALAPAGOS CHTR CAMPUS","x":"-87.7219590351","grade_cat":"ES","y":"41.8973130255","sch_addr":"3814 W IOWA ST, 60651","school_id":"400041","grades":"K, 1, 2, 3, 4, 5, 6, 7, 8","sch_type":"Charter"},"geometry":{"type":"Point","coordinates":[-87.72195903494841,41.897313024587845]}},{"type":"Feature","properties":{"school_nm":"GALE","x":"-87.6719389708","grade_cat":"ES","y":"42.021090562","sch_addr":"1631 W JONQUIL TER, 60626","school_id":"609933","grades":"PK, K, 1, 2, 3, 4, 5, 6, 7, 8","sch_type":"District, non-alternative"},"geometry":{"type":"Point","coordinates":[-87.67193897134332,42.02109056074705]}},{"type":"Feature","properties":{"school_nm":"LEWIS","x":"-87.7545499527","grade_cat":"ES","y":"41.9068260533","sch_addr":"1431 N LEAMINGTON AVE, 60651","school_id":"610036","grades":"PK, K, 1, 2, 3, 4, 5, 6, 7, 8","sch_type":"District, non-alternative"},"geometry":{"type":"Point","coordinates":[-87.75454995296735,41.90682605215051]}},{"type":"Feature","properties":{"school_nm":"KELLMAN","x":"-87.7008193596","grade_cat":"ES","y":"41.8711802198","sch_addr":"751 S SACRAMENTO BLVD, 60612","school_id":"609925","grades":"PK, K, 1, 2, 3, 4, 5, 6, 7, 8","sch_type":"District, non-alternative"},"geometry":{"type":"Point","coordinates":[-87.70081935966891,41.87118021892707]}},{"type":"Feature","properties":{"school_nm":"KELLOGG","x":"-87.6772325059","grade_cat":"ES","y":"41.7252634386","sch_addr":"9241 S LEAVITT ST, 60643","school_id":"610016","grades":"K, 1, 2, 3, 4, 5, 6, 7, 8","sch_type":"District, non-alternative"},"geometry":{"type":"Point","coordinates":[-87.67723250605175,41.72526343761134]}},{"type":"Feature","properties":{"school_nm":"KELLY HS","x":"-87.6946386564","grade_cat":"HS","y":"41.8187290603","sch_addr":"4136 S CALIFORNIA AVE, 60632","school_id":"609715","grades":"9, 10, 11, 12","sch_type":"District, non-alternative"},"geometry":{"type":"Point","coordinates":[-87.69463865633425,41.81872905945704]}},{"type":"Feature","properties":{"school_nm":"KELVYN PARK HS","x":"-87.7359988249","grade_cat":"HS","y":"41.9279184078","sch_addr":"4343 W WRIGHTWOOD AVE, 60639","school_id":"609716","grades":"9, 10, 11, 12","sch_type":"District, non-alternative"},"geometry":{"type":"Point","coordinates":[-87.73599882516447,41.92791840683099]}},{"type":"Feature","properties":{"school_nm":"KENNEDY HS","x":"-87.7803937762","grade_cat":"HS","y":"41.7904549937","sch_addr":"6325 W 56TH ST, 60638","school_id":"609718","grades":"9, 10, 11, 12","sch_type":"District, non-alternative"},"geometry":{"type":"Point","coordinates":[-87.78039377660755,41.79045499261266]}},{"type":"Feature","properties":{"school_nm":"KENWOOD HS","x":"-87.5904208861","grade_cat":"HS","y":"41.8037721185","sch_addr":"5015 S BLACKSTONE AVE, 60615","school_id":"609746","grades":"7, 8, 9, 10, 11, 12","sch_type":"District, non-alternative"},"geometry":{"type":"Point","coordinates":[-87.59042088585308,41.803772117584366]}},{"type":"Feature","properties":{"school_nm":"KERSHAW","x":"-87.6408920215","grade_cat":"ES","y":"41.7764528089","sch_addr":"6450 S LOWE AVE, 60621","school_id":"610019","grades":"PK, K, 1, 2, 3, 4, 5, 6, 7, 8","sch_type":"District, non-alternative"},"geometry":{"type":"Point","coordinates":[-87.640892021853,41.776452808053456]}},{"type":"Feature","properties":{"school_nm":"KEY","x":"-87.7663712678","grade_cat":"ES","y":"41.8898195817","sch_addr":"517 N PARKSIDE AVE, 60644","school_id":"610020","grades":"K, 1, 2, 3, 4, 5, 6, 7, 8","sch_type":"District, non-alternative"},"geometry":{"type":"Point","coordinates":[-87.76637126770359,41.88981958089812]}},{"type":"Feature","properties":{"school_nm":"KILMER","x":"-87.6682224628","grade_cat":"ES","y":"42.0036404645","sch_addr":"6700 N GREENVIEW AVE, 60626","school_id":"610022","grades":"PK, K, 1, 2, 3, 4, 5, 6, 7, 8","sch_type":"District, non-alternative"},"geometry":{"type":"Point","coordinates":[-87.6682224630142,42.00364046335863]}},{"type":"Feature","properties":{"school_nm":"KING","x":"-87.6887199823","grade_cat":"ES","y":"41.8718748376","sch_addr":"740 S CAMPBELL AVE, 60612","school_id":"610023","grades":"PK, K, 1, 2, 3, 4, 5, 6, 7, 8","sch_type":"District, non-alternative"},"geometry":{"type":"Point","coordinates":[-87.68871998285044,41.87187483696177]}},{"type":"Feature","properties":{"school_nm":"KING HS","x":"-87.6038738577","grade_cat":"HS","y":"41.8136754495","sch_addr":"4445 S DREXEL BLVD, 60653","school_id":"609751","grades":"9, 10, 11, 12","sch_type":"District, non-alternative"},"geometry":{"type":"Point","coordinates":[-87.60387385807209,41.81367544848617]}},{"type":"Feature","properties":{"school_nm":"KINZIE","x":"-87.7791419482","grade_cat":"ES","y":"41.789723594","sch_addr":"5625 S MOBILE AVE, 60638","school_id":"610026","grades":"PK, K, 1, 2, 3, 4, 5, 6, 7, 8","sch_type":"District, non-alternative"},"geometry":{"type":"Point","coordinates":[-87.77914194809945,41.78972359311289]}},{"type":"Feature","properties":{"school_nm":"KIPLING","x":"-87.6395207186","grade_cat":"ES","y":"41.7236269038","sch_addr":"9351 S LOWE AVE, 60620","school_id":"610027","grades":"K, 1, 2, 3, 4, 5, 6, 7, 8","sch_type":"District, non-alternative"},"geometry":{"type":"Point","coordinates":[-87.63952071882163,41.723626902590645]}},{"type":"Feature","properties":{"school_nm":"KIPP ASCEND CHTR CAMPUS","x":"-87.7212996747","grade_cat":"ES","y":"41.8583867624","sch_addr":"1616 S AVERS AVE, 60623","school_id":"400044","grades":"K, 1, 5, 6, 7, 8","sch_type":"Charter"},"geometry":{"type":"Point","coordinates":[-87.7212996747286,41.85838676137282]}},{"type":"Feature","properties":{"school_nm":"KOHN","x":"-87.6235653328","grade_cat":"ES","y":"41.7048499271","sch_addr":"10414 S STATE ST, 60628","school_id":"610028","grades":"PK, K, 1, 2, 3, 4, 5, 6, 7, 8","sch_type":"District, non-alternative"},"geometry":{"type":"Point","coordinates":[-87.62356533316752,41.7048499264423]}},{"type":"Feature","properties":{"school_nm":"KOZMINSKI","x":"-87.6024814463","grade_cat":"ES","y":"41.7980018768","sch_addr":"936 E 54TH ST, 60615","school_id":"610030","grades":"PK, K, 1, 2, 3, 4, 5, 6, 7, 8","sch_type":"District, non-alternative"},"geometry":{"type":"Point","coordinates":[-87.60248144662864,41.79800187574939]}},{"type":"Feature","properties":{"school_nm":"LAFAYETTE","x":"-87.6949450052","grade_cat":"ES","y":"41.8993765768","sch_addr":"2714 W AUGUSTA BLVD, 60622","school_id":"610031","grades":"PK, K, 1, 2, 3, 4, 5, 6, 7, 8","sch_type":"District, non-alternative"},"geometry":{"type":"Point","coordinates":[-87.6949450056991,41.89937657596204]}},{"type":"Feature","properties":{"school_nm":"CARTER","x":"-87.6224527471","grade_cat":"ES","y":"41.7898279034","sch_addr":"5740 S MICHIGAN AVE, 60637","school_id":"609844","grades":"K, 1, 2, 3, 4, 5, 6, 7, 8","sch_type":"District, non-alternative"},"geometry":{"type":"Point","coordinates":[-87.62245274711951,41.78982790263153]}},{"type":"Feature","properties":{"school_nm":"CARVER , G","x":"-87.5995156249","grade_cat":"ES","y":"41.6537021143","sch_addr":"901 E 133RD PL, 60827","school_id":"609845","grades":"PK, K, 1, 2, 3, 4, 5, 6, 7, 8","sch_type":"District, non-alternative"},"geometry":{"type":"Point","coordinates":[-87.5995156250201,41.6537021136196]}},{"type":"Feature","properties":{"school_nm":"CARVER MILITARY","x":"-87.5906203827","grade_cat":"HS","y":"41.6562899518","sch_addr":"13100 S DOTY AVE W, 60827","school_id":"609760","grades":"9, 10, 11, 12","sch_type":"District, non-alternative"},"geometry":{"type":"Point","coordinates":[-87.5906203827542,41.65628995140706]}},{"type":"Feature","properties":{"school_nm":"CASALS","x":"-87.714233644","grade_cat":"ES","y":"41.9045027671","sch_addr":"3501 W POTOMAC AVE, 60651","school_id":"610021","grades":"PK, K, 1, 2, 3, 4, 5, 6, 7, 8","sch_type":"District, non-alternative"},"geometry":{"type":"Point","coordinates":[-87.7142336442851,41.90450276640488]}},{"type":"Feature","properties":{"school_nm":"CASSELL","x":"-87.7032154856","grade_cat":"ES","y":"41.6873470528","sch_addr":"11314 S SPAULDING AVE, 60655","school_id":"609849","grades":"K, 1, 2, 3, 4, 5, 6, 7, 8","sch_type":"District, non-alternative"},"geometry":{"type":"Point","coordinates":[-87.70321548590961,41.68734705187878]}},{"type":"Feature","properties":{"school_nm":"CASTELLANOS","x":"-87.7149270108","grade_cat":"ES","y":"41.8454498842","sch_addr":"2524 S CENTRAL PARK AVE, 60623","school_id":"609826","grades":"4, 5, 6, 7, 8","sch_type":"District, non-alternative"},"geometry":{"type":"Point","coordinates":[-87.71492701049455,41.845449883047024]}},{"type":"Feature","properties":{"school_nm":"CATALYST CHTR - HOWLAND","x":"-87.7079889438","grade_cat":"ES","y":"41.8585187302","sch_addr":"1616 S SPAULDING AVE, 60623","school_id":"400020","grades":"K, 1, 2, 3, 4, 5, 6, 7, 8","sch_type":"Charter"},"geometry":{"type":"Point","coordinates":[-87.70798894432076,41.85851872912694]}},{"type":"Feature","properties":{"school_nm":"CATALYST CHTR - CIRCLE ROCK","x":"-87.7653219806","grade_cat":"ES","y":"41.8823222237","sch_addr":"5608 W WASHINGTON BLVD, 60644","school_id":"400021","grades":"K, 1, 2, 3, 4, 5, 6, 7, 8","sch_type":"Charter"},"geometry":{"type":"Point","coordinates":[-87.76532198072192,41.882322222696914]}},{"type":"Feature","properties":{"school_nm":"CATHER","x":"-87.6991870025","grade_cat":"ES","y":"41.8829499283","sch_addr":"2908 W WASHINGTON BLVD, 60612","school_id":"610251","grades":"PK, K, 1, 2, 3, 4, 5, 6, 7, 8","sch_type":"District, non-alternative"},"geometry":{"type":"Point","coordinates":[-87.69918700297484,41.88294992737716]}},{"type":"Feature","properties":{"school_nm":"CHALMERS","x":"-87.695259366","grade_cat":"ES","y":"41.8664352559","sch_addr":"2745 W ROOSEVELT RD, 60608","school_id":"609851","grades":"PK, K, 1, 2, 3, 4, 5, 6, 7, 8","sch_type":"District, non-alternative"},"geometry":{"type":"Point","coordinates":[-87.69525936609594,41.866435254938445]}},{"type":"Feature","properties":{"school_nm":"CHAPPELL","x":"-87.6832635931","grade_cat":"ES","y":"41.9758943036","sch_addr":"2135 W FOSTER AVE, 60625","school_id":"609852","grades":"PK, K, 1, 2, 3, 4, 5, 6, 7, 8","sch_type":"District, non-alternative"},"geometry":{"type":"Point","coordinates":[-87.6832635930869,41.975894302621896]}},{"type":"Feature","properties":{"school_nm":"CHASE","x":"-87.6945622475","grade_cat":"ES","y":"41.9179926577","sch_addr":"2021 N POINT ST, 60647","school_id":"609853","grades":"PK, K, 1, 2, 3, 4, 5, 6, 7, 8","sch_type":"District, non-alternative"},"geometry":{"type":"Point","coordinates":[-87.6945622478457,41.91799265641545]}},{"type":"Feature","properties":{"school_nm":"CHAVEZ","x":"-87.666036931","grade_cat":"ES","y":"41.8071428291","sch_addr":"4747 S MARSHFIELD AVE, 60609","school_id":"610148","grades":"PK, K, 1, 2, 3, 4, 5, 6, 7, 8","sch_type":"District, non-alternative"},"geometry":{"type":"Point","coordinates":[-87.66603693067037,41.807142827923876]}},{"type":"Feature","properties":{"school_nm":"CHGO ACAD ES","x":"-87.7764682837","grade_cat":"ES","y":"41.9421369228","sch_addr":"3400 N AUSTIN AVE, 60634","school_id":"610248","grades":"PK, K, 1, 2, 3, 4, 5, 6, 7, 8","sch_type":"District, non-alternative"},"geometry":{"type":"Point","coordinates":[-87.77646828307846,41.942136921636305]}},{"type":"Feature","properties":{"school_nm":"CHGO ACAD HS","x":"-87.7764682837","grade_cat":"HS","y":"41.9421369228","sch_addr":"3400 N AUSTIN AVE, 60634","school_id":"610340","grades":"9, 10, 11, 12","sch_type":"District, non-alternative"},"geometry":{"type":"Point","coordinates":[-87.77646828307846,41.942136921636305]}},{"type":"Feature","properties":{"school_nm":"CHGO AGR HS","x":"-87.7177696697","grade_cat":"HS","y":"41.69122074","sch_addr":"3857 W 111TH ST, 60655","school_id":"609753","grades":"9, 10, 11, 12","sch_type":"District, non-alternative"},"geometry":{"type":"Point","coordinates":[-87.71776967031118,41.69122073907238]}},{"type":"Feature","properties":{"school_nm":"CHGO ARTS CONTR HS","x":"-87.6136286432","grade_cat":"HS","y":"41.8311175301","sch_addr":"521 E 35TH ST, 60616","school_id":"400022","grades":"9, 10, 11","sch_type":"Contract"},"geometry":{"type":"Point","coordinates":[-87.61362864339577,41.831117529020055]}},{"type":"Feature","properties":{"school_nm":"CHGO MATH & SCI ACAD CAMPUS HS","x":"-87.6747628011","grade_cat":"HS","y":"42.0127213609","sch_addr":"7212 N CLARK ST, 60626","school_id":"400035","grades":"6, 7, 8, 9, 10, 11, 12","sch_type":"Charter"},"geometry":{"type":"Point","coordinates":[-87.67476280136162,42.01272135964691]}},{"type":"Feature","properties":{"school_nm":"KANOON","x":"-87.7051120723","grade_cat":"ES","y":"41.8507714851","sch_addr":"2233 S KEDZIE AVE, 60623","school_id":"609920","grades":"PK, K, 1, 2, 3, 4, 5, 6, 7, 8","sch_type":"District, non-alternative"},"geometry":{"type":"Point","coordinates":[-87.70511207227977,41.85077148447352]}},{"type":"Feature","properties":{"school_nm":"KELLER","x":"-87.6972783307","grade_cat":"ES","y":"41.6971703302","sch_addr":"3020 W 108TH ST, 60655","school_id":"610084","grades":"1, 2, 3, 4, 5, 6, 7, 8","sch_type":"District, non-alternative"},"geometry":{"type":"Point","coordinates":[-87.69727833104406,41.69717032922592]}},{"type":"Feature","properties":{"school_nm":"LANE HS","x":"-87.6910126244","grade_cat":"HS","y":"41.9466445763","sch_addr":"2501 W ADDISON ST, 60618","school_id":"609720","grades":"7, 9, 10, 11, 12","sch_type":"District, non-alternative"},"geometry":{"type":"Point","coordinates":[-87.69101262432021,41.946644575077194]}},{"type":"Feature","properties":{"school_nm":"LANGFORD","x":"-87.6571692056","grade_cat":"ES","y":"41.7846808587","sch_addr":"6010 S THROOP ST, 60636","school_id":"609869","grades":"PK, K, 1, 2, 3, 4, 5, 6, 7, 8","sch_type":"District, non-alternative"},"geometry":{"type":"Point","coordinates":[-87.65716920540471,41.78468085784577]}},{"type":"Feature","properties":{"school_nm":"LARA","x":"-87.672181591","grade_cat":"ES","y":"41.8097702934","sch_addr":"4619 S WOLCOTT AVE, 60609","school_id":"609993","grades":"PK, K, 1, 2, 3, 4, 5, 6, 7, 8","sch_type":"District, non-alternative"},"geometry":{"type":"Point","coordinates":[-87.672181590932,41.809770292680305]}},{"type":"Feature","properties":{"school_nm":"LASALLE","x":"-87.6375648622","grade_cat":"ES","y":"41.9138995358","sch_addr":"1734 N ORLEANS ST, 60614","school_id":"610033","grades":"K, 1, 2, 3, 4, 5, 6, 7, 8","sch_type":"District, non-alternative"},"geometry":{"type":"Point","coordinates":[-87.63756486227847,41.91389953493365]}},{"type":"Feature","properties":{"school_nm":"LASALLE II","x":"-87.6736960316","grade_cat":"ES","y":"41.9029144609","sch_addr":"1148 N HONORE ST, 60622","school_id":"610520","grades":"PK, K, 1, 2, 3, 4, 5, 6, 7, 8","sch_type":"District, non-alternative"},"geometry":{"type":"Point","coordinates":[-87.67369603168211,41.90291446010711]}},{"type":"Feature","properties":{"school_nm":"LATHROP","x":"-87.7092868257","grade_cat":"ES","y":"41.8611741919","sch_addr":"1440 S CHRISTIANA AVE, 60623","school_id":"610253","grades":"3, 4, 5, 6, 7, 8","sch_type":"Elementary School"},"geometry":{"type":"Point","coordinates":[-87.70928682595766,41.861174190677914]}},{"type":"Feature","properties":{"school_nm":"LAVIZZO","x":"-87.6271476844","grade_cat":"ES","y":"41.6962623442","sch_addr":"138 W 109TH ST, 60628","school_id":"610208","grades":"PK, K, 1, 2, 3, 4, 5, 6, 7, 8","sch_type":"District, non-alternative"},"geometry":{"type":"Point","coordinates":[-87.62714768436607,41.69626234353492]}},{"type":"Feature","properties":{"school_nm":"LAWNDALE","x":"-87.7129567797","grade_cat":"ES","y":"41.8629600264","sch_addr":"3500 W DOUGLAS BLVD, 60623","school_id":"610034","grades":"PK, K, 1, 2, 3, 4, 5, 6, 7, 8","sch_type":"District, non-alternative"},"geometry":{"type":"Point","coordinates":[-87.71295677956284,41.86296002578596]}},{"type":"Feature","properties":{"school_nm":"LAWRENCE","x":"-87.5671305885","grade_cat":"ES","y":"41.7144020599","sch_addr":"9928 S CRANDON AVE, 60617","school_id":"610045","grades":"PK, K, 1, 2, 3, 4, 5, 6, 7, 8","sch_type":"District, non-alternative"},"geometry":{"type":"Point","coordinates":[-87.5671305889944,41.714402059038704]}},{"type":"Feature","properties":{"school_nm":"LEARN CHTR - HUNTER PERKINS","x":"-87.5645166086","grade_cat":"ES","y":"41.7659696631","sch_addr":"1700 W 83RD ST, 60620","school_id":"400111","grades":"K, 1, 2, 3","sch_type":"Charter"},"geometry":{"type":"Point","coordinates":[-87.56451660907513,41.765969661957755]}},{"type":"Feature","properties":{"school_nm":"LEARN CHTR BUTLER","x":"-87.710679475","grade_cat":"ES","y":"41.8672727166","sch_addr":"1132 S HOMAN AVE, 60624","school_id":"400046","grades":"PK, K, 1, 2, 3, 4, 5, 6, 7, 8","sch_type":"Charter"},"geometry":{"type":"Point","coordinates":[-87.71067947524064,41.867272715624054]}},{"type":"Feature","properties":{"school_nm":"LEARN CHTR EXCEL","x":"-87.6862904197","grade_cat":"ES","y":"41.8749129222","sch_addr":"2401 W CONGRESS PKWY, 60612","school_id":"400048","grades":"K, 1, 2, 3, 4, 5","sch_type":"Charter"},"geometry":{"type":"Point","coordinates":[-87.6862904201573,41.87491292140755]}},{"type":"Feature","properties":{"school_nm":"LEARN CHTR - CAMPBELL","x":"-87.6987387179","grade_cat":"ES","y":"41.877860635","sch_addr":"212 S FRANCISCO AVE, 60612","school_id":"400047","grades":"K, 1, 2, 3, 4, 5","sch_type":"Charter"},"geometry":{"type":"Point","coordinates":[-87.69873871736806,41.8778606337788]}},{"type":"Feature","properties":{"school_nm":"LEARN CHRT - SO CHICAGO","x":"-87.5444784442","grade_cat":"ES","y":"41.7333291469","sch_addr":"8914 S BUFFALO AVE, 60617","school_id":"400107","grades":"K, 1, 2, 3, 4","sch_type":"Charter"},"geometry":{"type":"Point","coordinates":[-87.54447844467616,41.73332914610987]}},{"type":"Feature","properties":{"school_nm":"LEE","x":"-87.7288842889","grade_cat":"ES","y":"41.7753053893","sch_addr":"6448 S TRIPP AVE, 60629","school_id":"610291","grades":"PK, K, 1, 2, 3, 4, 5, 6, 7, 8","sch_type":"District, non-alternative"},"geometry":{"type":"Point","coordinates":[-87.7288842893135,41.77530538839105]}},{"type":"Feature","properties":{"school_nm":"LEGACY CHTR CAMPUS","x":"-87.7304690376","grade_cat":"ES","y":"41.8568797079","sch_addr":"4217 W 18TH ST, 60623","school_id":"400049","grades":"PK, K, 1, 2, 3, 4, 5, 6, 7, 8","sch_type":"Charter"},"geometry":{"type":"Point","coordinates":[-87.730469037596,41.85687970673161]}},{"type":"Feature","properties":{"school_nm":"LELAND","x":"-87.7556999916","grade_cat":"ES","y":"41.8738520788","sch_addr":"5221 W CONGRESS PKWY, 60644","school_id":"610305","grades":"PK, K, 1, 2, 3","sch_type":"District, non-alternative"},"geometry":{"type":"Point","coordinates":[-87.7556999917361,41.873852077542516]}},{"type":"Feature","properties":{"school_nm":"LENART","x":"-87.6280403585","grade_cat":"ES","y":"41.7471859168","sch_addr":"8101 S LA SALLE ST, 60620","school_id":"610298","grades":"PK, K, 1, 2, 3, 4, 5, 6, 7, 8","sch_type":"District, non-alternative"},"geometry":{"type":"Point","coordinates":[-87.62804035838174,41.747185915642824]}},{"type":"Feature","properties":{"school_nm":"GALLISTEL","x":"-87.5351753054","grade_cat":"ES","y":"41.7068009955","sch_addr":"10347 S EWING AVE, 60617","school_id":"609935","grades":"PK, K, 1, 2, 3, 4, 5, 6, 7, 8","sch_type":"District, non-alternative"},"geometry":{"type":"Point","coordinates":[-87.53517530590958,41.706800994342096]}},{"type":"Feature","properties":{"school_nm":"GARFIELD PARK","x":"-87.7080920154","grade_cat":"ES","y":"41.8797135937","sch_addr":"3250 W MONROE ST, 60624","school_id":"400095","grades":"K, 1, 2, 3, 4, 5","sch_type":"District, non-alternative"},"geometry":{"type":"Point","coordinates":[-87.70809201560219,41.87971359329826]}},{"type":"Feature","properties":{"school_nm":"GARVEY","x":"-87.6475771638","grade_cat":"ES","y":"41.7066028573","sch_addr":"10309 S MORGAN ST, 60643","school_id":"610128","grades":"PK, K, 1, 2, 3, 4, 5, 6, 7, 8","sch_type":"District, non-alternative"},"geometry":{"type":"Point","coordinates":[-87.64757716403204,41.70660285635696]}},{"type":"Feature","properties":{"school_nm":"GARVY","x":"-87.7962351135","grade_cat":"ES","y":"41.9763516642","sch_addr":"5225 N OAK PARK AVE, 60656","school_id":"609937","grades":"K, 1, 2, 3, 4, 5, 6, 7, 8","sch_type":"District, non-alternative"},"geometry":{"type":"Point","coordinates":[-87.79623511407263,41.976351663260274]}},{"type":"Feature","properties":{"school_nm":"GARY","x":"-87.7186966345","grade_cat":"ES","y":"41.8370651538","sch_addr":"3740 W 31ST ST, 60623","school_id":"609938","grades":"PK, 3, 4, 5, 6, 7, 8","sch_type":"District, non-alternative"},"geometry":{"type":"Point","coordinates":[-87.71869663460532,41.8370651530003]}},{"type":"Feature","properties":{"school_nm":"GILLESPIE","x":"-87.6237194351","grade_cat":"ES","y":"41.7253322761","sch_addr":"9301 S STATE ST, 60619","school_id":"609939","grades":"PK, K, 1, 2, 3, 4, 5, 6, 7, 8","sch_type":"District, non-alternative"},"geometry":{"type":"Point","coordinates":[-87.62371943513719,41.72533227493442]}},{"type":"Feature","properties":{"school_nm":"GLOBAL CITIZENSHIP CHTR","x":"-87.7400974382","grade_cat":"ES","y":"41.8075785051","sch_addr":"4647 W 47TH ST, 60632","school_id":"400009","grades":"K, 1, 2, 3, 4","sch_type":"Charter"},"geometry":{"type":"Point","coordinates":[-87.74009743824453,41.80757850419716]}},{"type":"Feature","properties":{"school_nm":"GOETHE","x":"-87.6928996921","grade_cat":"ES","y":"41.9228310104","sch_addr":"2236 N ROCKWELL ST, 60647","school_id":"609942","grades":"PK, K, 1, 2, 3, 4, 5, 6, 7, 8","sch_type":"District, non-alternative"},"geometry":{"type":"Point","coordinates":[-87.69289969218757,41.92283100928599]}},{"type":"Feature","properties":{"school_nm":"GOLDBLATT","x":"-87.732776332","grade_cat":"ES","y":"41.8778077718","sch_addr":"4257 W ADAMS ST, 60624","school_id":"610348","grades":"PK, K, 1, 2, 3, 4, 5, 6, 7, 8","sch_type":"District, non-alternative"},"geometry":{"type":"Point","coordinates":[-87.73277633198582,41.87780777092469]}},{"type":"Feature","properties":{"school_nm":"GOMPERS","x":"-87.6225456582","grade_cat":"ES","y":"41.6706175397","sch_addr":"12302 S STATE ST, 60628","school_id":"609943","grades":"4, 5, 6, 7, 8","sch_type":"District, non-alternative"},"geometry":{"type":"Point","coordinates":[-87.6225456582417,41.67061753859555]}},{"type":"Feature","properties":{"school_nm":"GOODLOW","x":"-87.6755466577","grade_cat":"ES","y":"41.7812251709","sch_addr":"2040 W 62ND ST, 60636","school_id":"609913","grades":"PK, K, 1, 2, 3, 4, 5, 6, 7, 8","sch_type":"District, non-alternative"},"geometry":{"type":"Point","coordinates":[-87.67554665774668,41.78122516981559]}},{"type":"Feature","properties":{"school_nm":"GOUDY","x":"-87.657912492","grade_cat":"ES","y":"41.9758165323","sch_addr":"5120 N WINTHROP AVE, 60640","school_id":"609945","grades":"PK, K, 1, 2, 3, 4, 5, 6, 7, 8","sch_type":"District, non-alternative"},"geometry":{"type":"Point","coordinates":[-87.65791249238316,41.975816531387366]}},{"type":"Feature","properties":{"school_nm":"GRAHAM","x":"-87.6433442324","grade_cat":"ES","y":"41.8133037257","sch_addr":"4436 S UNION AVE, 60609","school_id":"609947","grades":"PK, K, 1, 2, 3, 4, 5, 6, 7, 8","sch_type":"District, non-alternative"},"geometry":{"type":"Point","coordinates":[-87.64334423205042,41.81330372529628]}},{"type":"Feature","properties":{"school_nm":"GRAHAM,R HS","x":"-87.6253148113","grade_cat":"HS","y":"41.849675418","sch_addr":"2347 S WABASH AVE, 60616","school_id":"609769","grades":"10, 11, 12","sch_type":"District, Special Ed."},"geometry":{"type":"Point","coordinates":[-87.62531481166195,41.84967541706241]}},{"type":"Feature","properties":{"school_nm":"GRAY, W","x":"-87.7571155988","grade_cat":"ES","y":"41.9487635813","sch_addr":"3730 N LARAMIE AVE, 60641","school_id":"609949","grades":"PK, K, 1, 2, 3, 4, 5, 6, 7, 8","sch_type":"District, non-alternative"},"geometry":{"type":"Point","coordinates":[-87.75711559857695,41.94876358053933]}},{"type":"Feature","properties":{"school_nm":"GREELEY","x":"-87.6509798669","grade_cat":"ES","y":"41.952809513","sch_addr":"832 W SHERIDAN RD, 60613","school_id":"609850","grades":"PK, K, 1, 2, 3, 4, 5, 6, 7, 8","sch_type":"District, non-alternative"},"geometry":{"type":"Point","coordinates":[-87.65097986694747,41.952809512073735]}},{"type":"Feature","properties":{"school_nm":"PEABODY","x":"-87.6642097741","grade_cat":"ES","y":"41.8998413305","sch_addr":"1444 W AUGUSTA BLVD, 60642","school_id":"610119","grades":"PK, K, 1, 2, 3, 4, 5, 6, 7, 8","sch_type":"District, non-alternative"},"geometry":{"type":"Point","coordinates":[-87.66420977465567,41.89984132947131]}},{"type":"Feature","properties":{"school_nm":"PECK","x":"-87.7192162574","grade_cat":"ES","y":"41.7878989696","sch_addr":"3826 W 58TH ST, 60629","school_id":"610120","grades":"PK, K, 1, 2, 3, 4, 5, 6, 7, 8","sch_type":"District, non-alternative"},"geometry":{"type":"Point","coordinates":[-87.7192162574759,41.78789896899668]}},{"type":"Feature","properties":{"school_nm":"PEIRCE","x":"-87.6658500341","grade_cat":"ES","y":"41.9834557953","sch_addr":"1423 W BRYN MAWR AVE, 60660","school_id":"610122","grades":"PK, K, 1, 2, 3, 4, 5, 6, 7, 8","sch_type":"District, non-alternative"},"geometry":{"type":"Point","coordinates":[-87.66585003456245,41.98345579418612]}},{"type":"Feature","properties":{"school_nm":"PENN","x":"-87.7212996747","grade_cat":"ES","y":"41.8583867624","sch_addr":"1616 S AVERS AVE, 60623","school_id":"610123","grades":"PK, K, 1, 2, 3, 4, 5, 6, 7, 8","sch_type":"District, non-alternative"},"geometry":{"type":"Point","coordinates":[-87.7212996747286,41.85838676137282]}},{"type":"Feature","properties":{"school_nm":"PEREZ","x":"-87.6579801252","grade_cat":"ES","y":"41.8560287244","sch_addr":"1241 W 19TH ST, 60608","school_id":"609872","grades":"PK, K, 1, 2, 3, 4, 5, 6, 7, 8","sch_type":"District, non-alternative"},"geometry":{"type":"Point","coordinates":[-87.65798012527829,41.856028723375]}},{"type":"Feature","properties":{"school_nm":"PERSHING","x":"-87.6133774903","grade_cat":"ES","y":"41.8380326946","sch_addr":"3113 S RHODES AVE, 60616","school_id":"610126","grades":"PK, K, 1, 2, 3","sch_type":"District, non-alternative"},"geometry":{"type":"Point","coordinates":[-87.61337749005615,41.83803269397632]}},{"type":"Feature","properties":{"school_nm":"PERSHING MIDDLE","x":"-87.6183376526","grade_cat":"MS","y":"41.8365269531","sch_addr":"3200 S CALUMET AVE, 60616","school_id":"610395","grades":"4, 5, 6, 7, 8","sch_type":"District, non-alternative"},"geometry":{"type":"Point","coordinates":[-87.61833765248322,41.83652695222103]}},{"type":"Feature","properties":{"school_nm":"PERSPECTIVES CHTR - LEADERSHIP ACADEMY","x":"-87.6522914949","grade_cat":"HS","y":"41.7459351785","sch_addr":"8131 S MAY ST, 60620","school_id":"400061","grades":"9, 10, 11, 12","sch_type":"Charter"},"geometry":{"type":"Point","coordinates":[-87.65229149533978,41.74593517754535]}},{"type":"Feature","properties":{"school_nm":"PERSPECTIVES CHTR CALUMET TECH","x":"-87.6522914949","grade_cat":"HS","y":"41.7459351785","sch_addr":"8131 S MAY ST, 60620","school_id":"400062","grades":"9, 10, 11, 12","sch_type":"Charter"},"geometry":{"type":"Point","coordinates":[-87.65229149533978,41.74593517754535]}},{"type":"Feature","properties":{"school_nm":"PERSPECTIVES CHTR IIT","x":"-87.6247877181","grade_cat":"HS","y":"41.8277838558","sch_addr":"3663 S WABASH AVE, 60653","school_id":"400066","grades":"6, 7, 8, 9, 10, 11, 12","sch_type":"Charter"},"geometry":{"type":"Point","coordinates":[-87.62478771857694,41.827783854864045]}},{"type":"Feature","properties":{"school_nm":"PERSPECTIVES CHTR JOSLIN","x":"-87.6285308961","grade_cat":"HS","y":"41.8559991081","sch_addr":"1930 S ARCHER AVE, 60616","school_id":"400064","grades":"6, 7, 8, 9, 10, 11, 12","sch_type":"Charter"},"geometry":{"type":"Point","coordinates":[-87.62853089589889,41.8559991070814]}},{"type":"Feature","properties":{"school_nm":"PERSPECTIVES CHTR - MIDDLE SCHOOL","x":"-87.6522914949","grade_cat":"MS","y":"41.7459351785","sch_addr":"8131 S MAY ST, 60620","school_id":"400067","grades":"6, 7, 8","sch_type":"Charter"},"geometry":{"type":"Point","coordinates":[-87.65229149533978,41.74593517754535]}},{"type":"Feature","properties":{"school_nm":"PETERSON","x":"-87.7125825713","grade_cat":"ES","y":"41.9815571395","sch_addr":"5510 N CHRISTIANA AVE, 60625","school_id":"610127","grades":"PK, K, 1, 2, 3, 4, 5, 6, 7, 8","sch_type":"District, non-alternative"},"geometry":{"type":"Point","coordinates":[-87.71258257163339,41.98155713881419]}},{"type":"Feature","properties":{"school_nm":"PHILLIPS AA","x":"-87.6197963421","grade_cat":"HS","y":"41.8238799652","sch_addr":"244 E PERSHING RD, 60653","school_id":"609743","grades":"9, 10","sch_type":"High School"},"geometry":{"type":"Point","coordinates":[-87.61979634214786,41.82387996465738]}},{"type":"Feature","properties":{"school_nm":"PHILLIPS HS (&AA)","x":"-87.6197963421","grade_cat":"HS","y":"41.8238799652","sch_addr":"244 E PERSHING RD, 60653","school_id":"609727","grades":"9, 10, 11, 12","sch_type":"District, non-alternative"},"geometry":{"type":"Point","coordinates":[-87.61979634214786,41.82387996465738]}},{"type":"Feature","properties":{"school_nm":"PHOENIX MILITARY HS","x":"-87.6886872383","grade_cat":"HS","y":"41.8788484839","sch_addr":"145 S CAMPBELL AVE, 60612","school_id":"610304","grades":"9, 10, 11, 12","sch_type":"District, non-alternative"},"geometry":{"type":"Point","coordinates":[-87.68868723829392,41.878848483204784]}},{"type":"Feature","properties":{"school_nm":"PICCOLO","x":"-87.7312605951","grade_cat":"ES","y":"41.9001396569","sch_addr":"1040 N KEELER AVE, 60651","school_id":"610106","grades":"PK, K, 1, 2, 3, 4, 5, 6, 7, 8","sch_type":"District, non-alternative"},"geometry":{"type":"Point","coordinates":[-87.731260595072,41.90013965627623]}},{"type":"Feature","properties":{"school_nm":"PICKARD","x":"-87.6832907387","grade_cat":"ES","y":"41.8529003972","sch_addr":"2301 W 21ST PL, 60608","school_id":"610129","grades":"PK, K, 1, 2, 3, 4, 5, 6, 7, 8","sch_type":"District, non-alternative"},"geometry":{"type":"Point","coordinates":[-87.68329073905542,41.85290039615209]}},{"type":"Feature","properties":{"school_nm":"GREEN","x":"-87.6525001368","grade_cat":"ES","y":"41.7192919442","sch_addr":"1150 W 96TH ST, 60643","school_id":"610032","grades":"K, 1, 2, 3, 4, 5, 6, 7, 8","sch_type":"District, non-alternative"},"geometry":{"type":"Point","coordinates":[-87.65250013683595,41.71929194341724]}},{"type":"Feature","properties":{"school_nm":"GREENE","x":"-87.6714923669","grade_cat":"ES","y":"41.8296692786","sch_addr":"3525 S HONORE ST, 60609","school_id":"609952","grades":"K, 1, 2, 3, 4, 5","sch_type":"District, non-alternative"},"geometry":{"type":"Point","coordinates":[-87.67149236724542,41.829669277879304]}},{"type":"Feature","properties":{"school_nm":"GREGORY","x":"-87.7186661272","grade_cat":"ES","y":"41.8707421656","sch_addr":"3715 W POLK ST, 60624","school_id":"609954","grades":"PK, K, 1, 2, 3, 4, 5, 6, 7, 8","sch_type":"District, non-alternative"},"geometry":{"type":"Point","coordinates":[-87.71866612658428,41.870742164592]}},{"type":"Feature","properties":{"school_nm":"GRESHAM","x":"-87.6450252334","grade_cat":"ES","y":"41.738920157","sch_addr":"8524 S GREEN ST, 60620","school_id":"609955","grades":"PK, K, 1, 2, 3, 4, 5, 6, 7, 8","sch_type":"District, non-alternative"},"geometry":{"type":"Point","coordinates":[-87.64502523385482,41.738920156091005]}},{"type":"Feature","properties":{"school_nm":"GRIMES","x":"-87.758803298","grade_cat":"ES","y":"41.7754642607","sch_addr":"5450 W 64TH PL, 60638","school_id":"609956","grades":"PK, K, 1, 2, 3, 4, 5, 6, 7, 8","sch_type":"District, non-alternative"},"geometry":{"type":"Point","coordinates":[-87.75880329854054,41.775464259803876]}},{"type":"Feature","properties":{"school_nm":"GRISSOM","x":"-87.5533067037","grade_cat":"ES","y":"41.6624809989","sch_addr":"12810 S ESCANABA AVE, 60633","school_id":"609944","grades":"PK, K, 1, 2, 3, 4, 5, 6, 7, 8","sch_type":"District, non-alternative"},"geometry":{"type":"Point","coordinates":[-87.55330670428889,41.66248099814229]}},{"type":"Feature","properties":{"school_nm":"GUGGENHEIM","x":"-87.6491243445","grade_cat":"ES","y":"41.7638959722","sch_addr":"7141 S MORGAN ST, 60621","school_id":"610283","grades":"PK, K, 1, 2, 3, 4, 5, 6, 7, 8","sch_type":"Elementary School"},"geometry":{"type":"Point","coordinates":[-87.64912434457229,41.76389597148566]}},{"type":"Feature","properties":{"school_nm":"GUNSAULUS","x":"-87.6993641814","grade_cat":"ES","y":"41.8130073686","sch_addr":"4420 S SACRAMENTO AVE, 60632","school_id":"609958","grades":"PK, K, 1, 2, 3, 4, 5, 6, 7, 8","sch_type":"District, non-alternative"},"geometry":{"type":"Point","coordinates":[-87.69936418160727,41.8130073676404]}},{"type":"Feature","properties":{"school_nm":"HAINES","x":"-87.6338063306","grade_cat":"ES","y":"41.8499583168","sch_addr":"247 W 23RD PL, 60616","school_id":"609959","grades":"PK, K, 1, 2, 3, 4, 5, 6, 7, 8","sch_type":"District, non-alternative"},"geometry":{"type":"Point","coordinates":[-87.63380633094674,41.8499583163489]}},{"type":"Feature","properties":{"school_nm":"HALE","x":"-87.7765787127","grade_cat":"ES","y":"41.7801917312","sch_addr":"6140 S MELVINA AVE, 60638","school_id":"609960","grades":"PK, K, 1, 2, 3, 4, 5, 6, 7, 8","sch_type":"District, non-alternative"},"geometry":{"type":"Point","coordinates":[-87.77657871269919,41.78019173037784]}},{"type":"Feature","properties":{"school_nm":"HALEY","x":"-87.6336321349","grade_cat":"ES","y":"41.6866599676","sch_addr":"11411 S EGGLESTON AVE, 60628","school_id":"609808","grades":"PK, K, 1, 2, 3, 4, 5, 6, 7, 8","sch_type":"District, non-alternative"},"geometry":{"type":"Point","coordinates":[-87.63363213502316,41.686659966798864]}},{"type":"Feature","properties":{"school_nm":"HAMILTON","x":"-87.6708653705","grade_cat":"ES","y":"41.9452196561","sch_addr":"1650 W CORNELIA AVE, 60657","school_id":"609963","grades":"PK, K, 1, 2, 3, 4, 5, 6, 7, 8","sch_type":"District, non-alternative"},"geometry":{"type":"Point","coordinates":[-87.67086537061273,41.94521965506924]}},{"type":"Feature","properties":{"school_nm":"HAMLINE","x":"-87.6611746558","grade_cat":"ES","y":"41.8072415574","sch_addr":"4747 S BISHOP ST, 60609","school_id":"609964","grades":"PK, K, 1, 2, 3, 4, 5, 6, 7, 8","sch_type":"District, non-alternative"},"geometry":{"type":"Point","coordinates":[-87.66117465623874,41.80724155637335]}},{"type":"Feature","properties":{"school_nm":"HAMMOND","x":"-87.6962432983","grade_cat":"ES","y":"41.8527191386","sch_addr":"2819 W 21ST PL, 60623","school_id":"609966","grades":"PK, K, 1, 2, 3, 4, 5, 6, 7, 8","sch_type":"District, non-alternative"},"geometry":{"type":"Point","coordinates":[-87.69624329847144,41.852719137713045]}},{"type":"Feature","properties":{"school_nm":"HAMPTON","x":"-87.7087312818","grade_cat":"ES","y":"41.7534571917","sch_addr":"3434 W 77TH ST, 60652","school_id":"609807","grades":"PK, K, 1, 2, 3, 4, 5, 6, 7, 8","sch_type":"District, non-alternative"},"geometry":{"type":"Point","coordinates":[-87.70873128209091,41.75345719083858]}},{"type":"Feature","properties":{"school_nm":"HANCOCK HS","x":"-87.7244704617","grade_cat":"HS","y":"41.7914639077","sch_addr":"4034 W 56TH ST, 60629","school_id":"609694","grades":"9, 10, 11, 12","sch_type":"District, non-alternative"},"geometry":{"type":"Point","coordinates":[-87.72447046198569,41.791463906736155]}},{"type":"Feature","properties":{"school_nm":"HANSON PARK","x":"-87.7615147762","grade_cat":"ES","y":"41.9239552612","sch_addr":"5411 W FULLERTON AVE, 60639","school_id":"610068","grades":"PK, K, 1, 2, 3, 4, 5, 6, 7, 8","sch_type":"District, non-alternative"},"geometry":{"type":"Point","coordinates":[-87.76151477661708,41.923955260014914]}},{"type":"Feature","properties":{"school_nm":"HARLAN HS","x":"-87.6206234346","grade_cat":"HS","y":"41.7183723425","sch_addr":"9652 S MICHIGAN AVE, 60628","school_id":"609710","grades":"7, 8, 9, 10, 11, 12","sch_type":"District, non-alternative"},"geometry":{"type":"Point","coordinates":[-87.62062343511005,41.71837234197768]}},{"type":"Feature","properties":{"school_nm":"DAWES","x":"-87.7173534223","grade_cat":"ES","y":"41.7450777495","sch_addr":"3810 W 81ST PL, 60652","school_id":"609879","grades":"PK, K, 1, 2, 3, 4, 5, 6, 7, 8","sch_type":"District, non-alternative"},"geometry":{"type":"Point","coordinates":[-87.71735342245631,41.745077748639304]}},